[
    {
        "rating": 3.5, 
        "review_count": 680, 
        "name": "Hilton Waikoloa Village", 
        "distance": 30.99788455340525, 
        "categories": [
            "resorts"
        ], 
        "id": "hilton-waikoloa-village-waikoloa-2", 
        "coord": {
            "latitude": 19.923861, 
            "longitude": -155.887427
        }
    }, 
    {
        "rating": 4.0, 
        "review_count": 22, 
        "name": "The Bay Club at Waikoloa Beach Resort", 
        "distance": 153.29353731435143, 
        "categories": [
            "hotels"
        ], 
        "id": "the-bay-club-at-waikoloa-beach-resort-waikoloa", 
        "coord": {
            "latitude": 19.9241128, 
            "longitude": -155.8861897
        }
    }, 
    {
        "rating": 3.5, 
        "review_count": 13, 
        "name": "Orchid Marketplace", 
        "distance": 167.91461372022653, 
        "categories": [
            "pizza", 
            "icecream"
        ], 
        "id": "orchid-marketplace-waikoloa-village", 
        "coord": {
            "latitude": 19.92555, 
            "longitude": -155.88747
        }
    }, 
    {
        "rating": 3.5, 
        "review_count": 4, 
        "name": "Lagoon Spoon", 
        "distance": 167.91461372022653, 
        "categories": [
            "bakeries"
        ], 
        "id": "lagoon-spoon-waikoloa-village", 
        "coord": {
            "latitude": 19.92555, 
            "longitude": -155.88747
        }
    }, 
    {
        "rating": 3.0, 
        "review_count": 1, 
        "name": "Waikoloa Coffee", 
        "distance": 167.91461372022653, 
        "categories": [
            "coffee"
        ], 
        "id": "waikoloa-coffee-waikoloa-village-2", 
        "coord": {
            "latitude": 19.92555, 
            "longitude": -155.88747
        }
    }, 
    {
        "rating": 3.5, 
        "review_count": 7, 
        "name": "Shaka cones", 
        "distance": 168.01278247189293, 
        "categories": [
            "icecream"
        ], 
        "id": "shaka-cones-waikoloa", 
        "coord": {
            "latitude": 19.9255505, 
            "longitude": -155.8874664
        }
    }, 
    {
        "rating": 5.0, 
        "review_count": 1, 
        "name": "Alamo Rent A Car", 
        "distance": 171.00119963522397, 
        "categories": [
            "carrental"
        ], 
        "id": "alamo-rent-a-car-waikoloa", 
        "coord": {
            "latitude": 19.924652, 
            "longitude": -155.886151
        }
    }, 
    {
        "rating": 5.0, 
        "review_count": 1, 
        "name": "National Car Rental", 
        "distance": 171.00119963522397, 
        "categories": [
            "carrental"
        ], 
        "id": "national-car-rental-waikoloa", 
        "coord": {
            "latitude": 19.924652, 
            "longitude": -155.886151
        }
    }, 
    {
        "rating": 3.5, 
        "review_count": 55, 
        "name": "Dolphin Quest", 
        "distance": 259.71866606392126, 
        "categories": [
            "tours"
        ], 
        "id": "dolphin-quest-waikoloa", 
        "coord": {
            "latitude": 19.9253906148369, 
            "longitude": -155.8896825979
        }
    }, 
    {
        "rating": 3.5, 
        "review_count": 207, 
        "name": "Kamuela Provision Company", 
        "distance": 276.65359101374486, 
        "categories": [
            "wine_bars", 
            "seafood", 
            "steak"
        ], 
        "id": "kamuela-provision-company-waikoloa", 
        "coord": {
            "latitude": 19.924447826155, 
            "longitude": -155.890259519219
        }
    }, 
    {
        "rating": 4.0, 
        "review_count": 247, 
        "name": "Tropics Ale House", 
        "distance": 370.6551174678883, 
        "categories": [
            "bars", 
            "pizza"
        ], 
        "id": "tropics-ale-house-waikoloa-beach", 
        "coord": {
            "latitude": 19.9209035, 
            "longitude": -155.8864217
        }
    }, 
    {
        "rating": 4.5, 
        "review_count": 4, 
        "name": "The Walking Company", 
        "distance": 381.087454317232, 
        "categories": [
            "shoes"
        ], 
        "id": "the-walking-company-waikoloa", 
        "coord": {
            "latitude": 19.92545, 
            "longitude": -155.88433
        }
    }, 
    {
        "rating": 4.0, 
        "review_count": 1, 
        "name": "Sunglass Hut", 
        "distance": 381.087454317232, 
        "categories": [
            "opticians"
        ], 
        "id": "sunglass-hut-waikoloa", 
        "coord": {
            "latitude": 19.92545, 
            "longitude": -155.88433
        }
    }, 
    {
        "rating": 4.0, 
        "review_count": 2, 
        "name": "Kohala Bay Collections", 
        "distance": 381.087454317232, 
        "categories": [
            "fashion"
        ], 
        "id": "kohala-bay-collections-waikoloa", 
        "coord": {
            "latitude": 19.92545, 
            "longitude": -155.88433
        }
    }, 
    {
        "rating": 4.0, 
        "review_count": 38, 
        "name": "Marble Slab Creamery", 
        "distance": 381.087454317232, 
        "categories": [
            "icecream"
        ], 
        "id": "marble-slab-creamery-waikoloa", 
        "coord": {
            "latitude": 19.92545, 
            "longitude": -155.88433
        }
    }, 
    {
        "rating": 4.0, 
        "review_count": 11, 
        "name": "Quiksilver", 
        "distance": 381.087454317232, 
        "categories": [
            "sportswear", 
            "surfing", 
            "swimwear"
        ], 
        "id": "quiksilver-waikoloa", 
        "coord": {
            "latitude": 19.92545, 
            "longitude": -155.88433
        }
    }, 
    {
        "rating": 4.5, 
        "review_count": 53, 
        "name": "Blue Wilderness Dive Adventures", 
        "distance": 381.087454317232, 
        "categories": [
            "diving"
        ], 
        "id": "blue-wilderness-dive-adventures-waikoloa", 
        "coord": {
            "latitude": 19.92545, 
            "longitude": -155.88433
        }
    }, 
    {
        "rating": 4.0, 
        "review_count": 2, 
        "name": "Dolphin Galleries", 
        "distance": 381.087454317232, 
        "categories": [
            "galleries", 
            "jewelry"
        ], 
        "id": "dolphin-galleries-waikoloa", 
        "coord": {
            "latitude": 19.92545, 
            "longitude": -155.88433
        }
    }, 
    {
        "rating": 4.5, 
        "review_count": 6, 
        "name": "Walking In Paradise", 
        "distance": 381.087454317232, 
        "categories": [
            "shoes"
        ], 
        "id": "walking-in-paradise-waikoloa", 
        "coord": {
            "latitude": 19.92545, 
            "longitude": -155.88433
        }
    }, 
    {
        "rating": 4.5, 
        "review_count": 5, 
        "name": "Tiffany & Co", 
        "distance": 381.087454317232, 
        "categories": [
            "jewelry"
        ], 
        "id": "tiffany-and-co-waikoloa", 
        "coord": {
            "latitude": 19.92545, 
            "longitude": -155.88433
        }
    }, 
    {
        "rating": 4.5, 
        "review_count": 6, 
        "name": "Tommy Bahama", 
        "distance": 381.087454317232, 
        "categories": [
            "menscloth", 
            "womenscloth", 
            "swimwear"
        ], 
        "id": "tommy-bahama-waikoloa", 
        "coord": {
            "latitude": 19.92545, 
            "longitude": -155.88433
        }
    }, 
    {
        "rating": 4.5, 
        "review_count": 4, 
        "name": "Genesis Galleries Hawaii", 
        "distance": 381.087454317232, 
        "categories": [
            "galleries"
        ], 
        "id": "genesis-galleries-hawaii-waikoloa-2", 
        "coord": {
            "latitude": 19.92545, 
            "longitude": -155.88433
        }
    }, 
    {
        "rating": 3.5, 
        "review_count": 3, 
        "name": "Honolua Surf Co", 
        "distance": 381.087454317232, 
        "categories": [
            "menscloth", 
            "womenscloth", 
            "swimwear"
        ], 
        "id": "honolua-surf-co-waikoloa-3", 
        "coord": {
            "latitude": 19.92545, 
            "longitude": -155.88433
        }
    }, 
    {
        "rating": 5.0, 
        "review_count": 1, 
        "name": "Kohala Coast Fine Art", 
        "distance": 381.087454317232, 
        "categories": [
            "galleries"
        ], 
        "id": "kohala-coast-fine-art-waikoloa", 
        "coord": {
            "latitude": 19.92545, 
            "longitude": -155.88433
        }
    }, 
    {
        "rating": 4.5, 
        "review_count": 8, 
        "name": "Sasha Hawaii", 
        "distance": 381.719783437223, 
        "categories": [
            "womenscloth", 
            "childcloth", 
            "swimwear"
        ], 
        "id": "sasha-hawaii-waikoloa", 
        "coord": {
            "latitude": 19.9254494, 
            "longitude": -155.8843231
        }
    }, 
    {
        "rating": 4.5, 
        "review_count": 7, 
        "name": "Crazy Shirts", 
        "distance": 381.719783437223, 
        "categories": [
            "menscloth"
        ], 
        "id": "crazy-shirts-waikoloa", 
        "coord": {
            "latitude": 19.9254494, 
            "longitude": -155.8843231
        }
    }, 
    {
        "rating": 5.0, 
        "review_count": 1, 
        "name": "Rip Curl Surf Center", 
        "distance": 381.719783437223, 
        "categories": [
            "sportswear", 
            "surfshop"
        ], 
        "id": "rip-curl-surf-center-waikoloa-village", 
        "coord": {
            "latitude": 19.9254494, 
            "longitude": -155.8843231
        }
    }, 
    {
        "rating": 5.0, 
        "review_count": 3, 
        "name": "Waikoloa Beach Resort", 
        "distance": 408.0966338519307, 
        "categories": [
            "golf", 
            "apartments"
        ], 
        "id": "waikoloa-beach-resort-waikoloa", 
        "coord": {
            "latitude": 19.92088, 
            "longitude": -155.88565
        }
    }, 
    {
        "rating": 4.5, 
        "review_count": 6, 
        "name": "Aston Shores at Waikoloa", 
        "distance": 408.2474095211171, 
        "categories": [
            "hotels"
        ], 
        "id": "aston-shores-at-waikoloa-waikoloa-2", 
        "coord": {
            "latitude": 19.9225998, 
            "longitude": -155.8840637
        }
    }, 
    {
        "rating": 5.0, 
        "review_count": 3, 
        "name": "Big Island Vacation Services", 
        "distance": 422.4454088941414, 
        "categories": [
            "tours", 
            "travelservices"
        ], 
        "id": "big-island-vacation-services-waikoloa", 
        "coord": {
            "latitude": 19.9226033204119, 
            "longitude": -155.883915263766
        }
    }, 
    {
        "rating": 3.0, 
        "review_count": 2, 
        "name": "Hawiian Ukulele and Guitar", 
        "distance": 491.6724137649859, 
        "categories": [
            "musicalinstrumentsandteachers", 
            "guitarstores"
        ], 
        "id": "hawiian-ukulele-and-guitar-waikoloa-3", 
        "coord": {
            "latitude": 19.9196167, 
            "longitude": -155.8872657
        }
    }, 
    {
        "rating": 4.5, 
        "review_count": 2, 
        "name": "Buddha Point", 
        "distance": 584.7580129706208, 
        "categories": [
            "localflavor"
        ], 
        "id": "buddha-point-waikoloa-village", 
        "coord": {
            "latitude": 19.9190721046165, 
            "longitude": -155.889541058836
        }
    }, 
    {
        "rating": 4.0, 
        "review_count": 32, 
        "name": "Halii Kai Resort", 
        "distance": 658.8424473520811, 
        "categories": [
            "resorts"
        ], 
        "id": "halii-kai-resort-waikoloa", 
        "coord": {
            "latitude": 19.9255557, 
            "longitude": -155.8815658
        }
    }, 
    {
        "rating": 3.5, 
        "review_count": 301, 
        "name": "Waikoloa Beach Marriott Resort & Spa", 
        "distance": 811.2832390291841, 
        "categories": [
            "hotels", 
            "bars"
        ], 
        "id": "waikoloa-beach-marriott-resort-and-spa-waikoloa-2", 
        "coord": {
            "latitude": 19.9173148361269, 
            "longitude": -155.884580612183
        }
    }, 
    {
        "rating": 4.0, 
        "review_count": 25, 
        "name": "Waikoloa Beach Marriott Sunset Luau", 
        "distance": 836.4230464123946, 
        "categories": [
            "theater"
        ], 
        "id": "waikoloa-beach-marriott-sunset-luau-waikoloa-village", 
        "coord": {
            "latitude": 19.916652046168, 
            "longitude": -155.885993634753
        }
    }, 
    {
        "rating": 4.0, 
        "review_count": 4, 
        "name": "Clipper Lounge", 
        "distance": 875.084867774121, 
        "categories": [
            "lounges", 
            "hawaiian"
        ], 
        "id": "clipper-lounge-waikoloa", 
        "coord": {
            "latitude": 19.91663, 
            "longitude": -155.88475
        }
    }, 
    {
        "rating": 5.0, 
        "review_count": 1, 
        "name": "Lamonts Gift & Sundry Shops", 
        "distance": 875.0910912152198, 
        "categories": [
            "flowers"
        ], 
        "id": "lamonts-gift-and-sundry-shops-waikoloa", 
        "coord": {
            "latitude": 19.9166298, 
            "longitude": -155.8847504
        }
    }, 
    {
        "rating": 4.5, 
        "review_count": 77, 
        "name": "Ocean Sports", 
        "distance": 881.2063167790677, 
        "categories": [
            "boating", 
            "boatcharters", 
            "diving"
        ], 
        "id": "ocean-sports-waikoloa", 
        "coord": {
            "latitude": 19.9161118165888, 
            "longitude": -155.886935582031
        }
    }, 
    {
        "rating": 3.5, 
        "review_count": 2, 
        "name": "Abay Caf\u00e9", 
        "distance": 884.5007514294701, 
        "categories": [
            "shavedice"
        ], 
        "id": "abay-caf\u00e9-waikoloa", 
        "coord": {
            "latitude": 19.9160573678576, 
            "longitude": -155.887378107162
        }
    }, 
    {
        "rating": 4.0, 
        "review_count": 17, 
        "name": "Blinnk Photography of Kona", 
        "distance": 903.3020266660615, 
        "categories": [
            "eventphotography", 
            "sessionphotography"
        ], 
        "id": "blinnk-photography-of-kona-waikoloa-village-5", 
        "coord": {
            "latitude": 19.916312, 
            "longitude": -155.8848924
        }
    }, 
    {
        "rating": 4.0, 
        "review_count": 29, 
        "name": "A Bay's Island Grill", 
        "distance": 954.3778137872797, 
        "categories": [
            "sportsbars", 
            "hawaiian"
        ], 
        "id": "a-bays-island-grill-waikoloa-village", 
        "coord": {
            "latitude": 19.9165270952378, 
            "longitude": -155.883186869323
        }
    }, 
    {
        "rating": 4.0, 
        "review_count": 624, 
        "name": "Roy's Waikoloa Bar & Grill", 
        "distance": 965.7047525016037, 
        "categories": [
            "hawaiian", 
            "seafood", 
            "asianfusion"
        ], 
        "id": "roys-waikoloa-bar-and-grill-waikoloa", 
        "coord": {
            "latitude": 19.9164675180362, 
            "longitude": -155.883078575134
        }
    }, 
    {
        "rating": 4.5, 
        "review_count": 15, 
        "name": "Outrigger Fairway Villas", 
        "distance": 998.1986269775683, 
        "categories": [
            "hotels"
        ], 
        "id": "outrigger-fairway-villas-kamuela", 
        "coord": {
            "latitude": 19.9160236829387, 
            "longitude": -155.883293151855
        }
    }, 
    {
        "rating": 3.5, 
        "review_count": 185, 
        "name": "Island Fish & Chips", 
        "distance": 1009.3998130872263, 
        "categories": [
            "seafood"
        ], 
        "id": "island-fish-and-chips-waikoloa", 
        "coord": {
            "latitude": 19.91651, 
            "longitude": -155.88222
        }
    }, 
    {
        "rating": 3.5, 
        "review_count": 20, 
        "name": "Whalers General Store", 
        "distance": 1009.3998130872263, 
        "categories": [
            "fashion"
        ], 
        "id": "whalers-general-store-waikoloa", 
        "coord": {
            "latitude": 19.91651, 
            "longitude": -155.88222
        }
    }, 
    {
        "rating": 5.0, 
        "review_count": 2, 
        "name": "Tori Richard", 
        "distance": 1009.3998130872263, 
        "categories": [
            "menscloth", 
            "womenscloth", 
            "swimwear"
        ], 
        "id": "tori-richard-waikaloa", 
        "coord": {
            "latitude": 19.91651, 
            "longitude": -155.88222
        }
    }, 
    {
        "rating": 4.0, 
        "review_count": 1, 
        "name": "Under the Koa Tree", 
        "distance": 1009.3998130872263, 
        "categories": [
            "flowers"
        ], 
        "id": "under-the-koa-tree-waikoloa", 
        "coord": {
            "latitude": 19.91651, 
            "longitude": -155.88222
        }
    }, 
    {
        "rating": 4.0, 
        "review_count": 20, 
        "name": "King's Trail - Malama Petroglyph Trail", 
        "distance": 1009.3998130872263, 
        "categories": [
            "hiking"
        ], 
        "id": "kings-trail-malama-petroglyph-trail-waikoloa", 
        "coord": {
            "latitude": 19.91651, 
            "longitude": -155.88222
        }
    }, 
    {
        "rating": 4.5, 
        "review_count": 2, 
        "name": "Mary Jane's", 
        "distance": 1009.3998130872263, 
        "categories": [
            "jewelry", 
            "accessories"
        ], 
        "id": "mary-janes-waikoloa-village-3", 
        "coord": {
            "latitude": 19.91651, 
            "longitude": -155.88222
        }
    }, 
    {
        "rating": 4.5, 
        "review_count": 6, 
        "name": "Na Hoku", 
        "distance": 1009.3998130872263, 
        "categories": [
            "jewelry"
        ], 
        "id": "na-hoku-waikoloa", 
        "coord": {
            "latitude": 19.91651, 
            "longitude": -155.88222
        }
    }, 
    {
        "rating": 4.0, 
        "review_count": 2, 
        "name": "Noa Noa", 
        "distance": 1009.3998130872263, 
        "categories": [
            "fashion"
        ], 
        "id": "noa-noa-waikoloa", 
        "coord": {
            "latitude": 19.91651, 
            "longitude": -155.88222
        }
    }, 
    {
        "rating": 3.0, 
        "review_count": 2, 
        "name": "Kings' Shops Farmers Market", 
        "distance": 1009.3998130872263, 
        "categories": [
            "farmersmarket"
        ], 
        "id": "kings-shops-farmers-market-puako", 
        "coord": {
            "latitude": 19.91651, 
            "longitude": -155.88222
        }
    }, 
    {
        "rating": 4.0, 
        "review_count": 21, 
        "name": "Big Island Motorcycle Co", 
        "distance": 1009.5897939105419, 
        "categories": [
            "bikerentals", 
            "motorcycle_rental"
        ], 
        "id": "big-island-motorcycle-co-waikoloa", 
        "coord": {
            "latitude": 19.9165096, 
            "longitude": -155.8822174
        }
    }, 
    {
        "rating": 5.0, 
        "review_count": 1, 
        "name": "Jourabchi Inc", 
        "distance": 1009.5897939105419, 
        "categories": [
            "womenscloth"
        ], 
        "id": "jourabchi-inc-waikoloa-village", 
        "coord": {
            "latitude": 19.9165096, 
            "longitude": -155.8822174
        }
    }, 
    {
        "rating": 5.0, 
        "review_count": 1, 
        "name": "Hawaii's Gift Basket Boutique", 
        "distance": 1018.8994628356198, 
        "categories": [
            "giftshops"
        ], 
        "id": "hawaiis-gift-basket-boutique-waikoloa", 
        "coord": {
            "latitude": 19.9164211, 
            "longitude": -155.8821969
        }
    }, 
    {
        "rating": 4.0, 
        "review_count": 1, 
        "name": "ResortQuest Waikoloa Colony Villas", 
        "distance": 1026.6003561705058, 
        "categories": [
            "hotels", 
            "guesthouses"
        ], 
        "id": "resortquest-waikoloa-colony-villas-waikoloa", 
        "coord": {
            "latitude": 19.92551, 
            "longitude": -155.87797
        }
    }, 
    {
        "rating": 4.0, 
        "review_count": 49, 
        "name": "Kohala Suites by Hilton Grand Vacations", 
        "distance": 1045.1723633243955, 
        "categories": [
            "hotels"
        ], 
        "id": "kohala-suites-by-hilton-grand-vacations-waikoloa-2", 
        "coord": {
            "latitude": 19.922555, 
            "longitude": -155.877794
        }
    }, 
    {
        "rating": 3.0, 
        "review_count": 1, 
        "name": "Kona Surf N Sandals", 
        "distance": 1066.7530822937888, 
        "categories": [
            "surfshop"
        ], 
        "id": "kona-surf-n-sandals-waikoloa-village-2", 
        "coord": {
            "latitude": 19.924174, 
            "longitude": -155.877464
        }
    }, 
    {
        "rating": 3.5, 
        "review_count": 126, 
        "name": "Ippy's Hawaiian Barbeque", 
        "distance": 1076.4931901997768, 
        "categories": [
            "bbq", 
            "hawaiian"
        ], 
        "id": "ippys-hawaiian-barbeque-waikoloa", 
        "coord": {
            "latitude": 19.9155102, 
            "longitude": -155.8827209
        }
    }, 
    {
        "rating": 4.5, 
        "review_count": 86, 
        "name": "Hearts & Stars Salon & Day Spa", 
        "distance": 1076.4931901997768, 
        "categories": [
            "hair", 
            "spas", 
            "othersalons"
        ], 
        "id": "hearts-and-stars-salon-and-day-spa-waikoloa", 
        "coord": {
            "latitude": 19.9155102, 
            "longitude": -155.8827209
        }
    }, 
    {
        "rating": 4.0, 
        "review_count": 80, 
        "name": "Daylight Mind Coffee", 
        "distance": 1076.699808951037, 
        "categories": [
            "coffee", 
            "breakfast_brunch"
        ], 
        "id": "daylight-mind-coffee-waikoloa-village-2", 
        "coord": {
            "latitude": 19.9155104, 
            "longitude": -155.8827164
        }
    }, 
    {
        "rating": 3.5, 
        "review_count": 19, 
        "name": "Persimmon", 
        "distance": 1076.699808951037, 
        "categories": [
            "womenscloth", 
            "accessories"
        ], 
        "id": "persimmon-waikoloa", 
        "coord": {
            "latitude": 19.9155104, 
            "longitude": -155.8827164
        }
    }, 
    {
        "rating": 5.0, 
        "review_count": 1, 
        "name": "SoHa Living", 
        "distance": 1076.699808951037, 
        "categories": [
            "homedecor", 
            "giftshops", 
            "jewelry"
        ], 
        "id": "soha-living-waikoloa-village", 
        "coord": {
            "latitude": 19.9155104, 
            "longitude": -155.8827164
        }
    }, 
    {
        "rating": 4.0, 
        "review_count": 1, 
        "name": "Starscape Gallery", 
        "distance": 1076.699808951037, 
        "categories": [
            "galleries"
        ], 
        "id": "starscape-gallery-waikoloa-village", 
        "coord": {
            "latitude": 19.9155104, 
            "longitude": -155.8827164
        }
    }, 
    {
        "rating": 3.5, 
        "review_count": 5, 
        "name": "Shiono Waikoloa", 
        "distance": 1076.699808951037, 
        "categories": [
            "sushi"
        ], 
        "id": "shiono-waikoloa-waikoloa", 
        "coord": {
            "latitude": 19.9155104, 
            "longitude": -155.8827164
        }
    }, 
    {
        "rating": 3.5, 
        "review_count": 43, 
        "name": "Queens MarketPlace", 
        "distance": 1076.699808951037, 
        "categories": [
            "shoppingcenters"
        ], 
        "id": "queens-marketplace-waikoloa-2", 
        "coord": {
            "latitude": 19.9155104, 
            "longitude": -155.8827164
        }
    }, 
    {
        "rating": 5.0, 
        "review_count": 5, 
        "name": "Calley O'Neill and The Full Body Elixir", 
        "distance": 1164.382159427311, 
        "categories": [
            "yoga"
        ], 
        "id": "calley-o-neill-and-the-full-body-elixir-waikoloa-beach-resort", 
        "coord": {
            "latitude": 19.913532, 
            "longitude": -155.888059
        }
    }, 
    {
        "rating": 4.0, 
        "review_count": 866, 
        "name": "Lava Lava Beach Club - Waikoloa", 
        "distance": 1191.4253998689744, 
        "categories": [
            "venues", 
            "hawaiian", 
            "newamerican"
        ], 
        "id": "lava-lava-beach-club-waikoloa-waikoloa", 
        "coord": {
            "latitude": 19.913284045398, 
            "longitude": -155.887937061489
        }
    }, 
    {
        "rating": 4.0, 
        "review_count": 20, 
        "name": "Aloha Wine Bar", 
        "distance": 1294.5946697386821, 
        "categories": [
            "wine_bars"
        ], 
        "id": "aloha-wine-bar-waikoloa-village", 
        "coord": {
            "latitude": 19.9141215110683, 
            "longitude": -155.881106761541
        }
    }, 
    {
        "rating": 4.5, 
        "review_count": 11, 
        "name": "49 Black Sand Beach", 
        "distance": 1307.527041090041, 
        "categories": [
            "beaches"
        ], 
        "id": "49-black-sand-beach-kamuela", 
        "coord": {
            "latitude": 19.9321907, 
            "longitude": -155.8786104
        }
    }, 
    {
        "rating": 4.5, 
        "review_count": 3, 
        "name": "Waikoloa Beach Villas", 
        "distance": 1330.3254493983304, 
        "categories": [
            "hotels", 
            "guesthouses"
        ], 
        "id": "waikoloa-beach-villas-waikoloa", 
        "coord": {
            "latitude": 19.915515, 
            "longitude": -155.8787
        }
    }, 
    {
        "rating": 4.0, 
        "review_count": 238, 
        "name": "Island Gourmet Markets", 
        "distance": 1333.5936475365145, 
        "categories": [
            "grocery", 
            "beer_and_wine", 
            "delis"
        ], 
        "id": "island-gourmet-markets-waikoloa-3", 
        "coord": {
            "latitude": 19.9137695444482, 
            "longitude": -155.881000404809
        }
    }, 
    {
        "rating": 3.5, 
        "review_count": 50, 
        "name": "Starbucks", 
        "distance": 1346.8469606510253, 
        "categories": [
            "coffee"
        ], 
        "id": "starbucks-kohala", 
        "coord": {
            "latitude": 19.9141813320437, 
            "longitude": -155.880118482334
        }
    }, 
    {
        "rating": 5.0, 
        "review_count": 1, 
        "name": "Malibu Shirts", 
        "distance": 1352.4977963386937, 
        "categories": [
            "accessories", 
            "menscloth", 
            "womenscloth"
        ], 
        "id": "malibu-shirts-waikoloa-village", 
        "coord": {
            "latitude": 19.9138389287389, 
            "longitude": -155.880548179467
        }
    }, 
    {
        "rating": 5.0, 
        "review_count": 1, 
        "name": "Lids", 
        "distance": 1376.2326418202395, 
        "categories": [
            "accessories", 
            "sportswear"
        ], 
        "id": "lids-waikoloa", 
        "coord": {
            "latitude": 19.913784, 
            "longitude": -155.880228
        }
    }, 
    {
        "rating": 4.0, 
        "review_count": 117, 
        "name": "Mai Grille By Allen Hess", 
        "distance": 1378.8297135719556, 
        "categories": [
            "newamerican", 
            "breakfast_brunch"
        ], 
        "id": "mai-grille-by-allen-hess-waikoloa-village", 
        "coord": {
            "latitude": 19.9214116875637, 
            "longitude": -155.874779662842
        }
    }, 
    {
        "rating": 5.0, 
        "review_count": 15, 
        "name": "Kolea at Waikoloa Beach Resort", 
        "distance": 1407.3371188721412, 
        "categories": [
            "hotels"
        ], 
        "id": "kolea-at-waikoloa-beach-resort-waikoloa-2", 
        "coord": {
            "latitude": 19.9132014, 
            "longitude": -155.8806327
        }
    }, 
    {
        "rating": 3.5, 
        "review_count": 3, 
        "name": "Local Motion", 
        "distance": 1407.3371188721412, 
        "categories": [
            "fashion"
        ], 
        "id": "local-motion-waikoloa-2", 
        "coord": {
            "latitude": 19.9132014, 
            "longitude": -155.8806327
        }
    }, 
    {
        "rating": 3.5, 
        "review_count": 194, 
        "name": "Lemongrass Express", 
        "distance": 1422.5366821117357, 
        "categories": [
            "asianfusion"
        ], 
        "id": "lemongrass-express-waikoloa-2", 
        "coord": {
            "latitude": 19.913342, 
            "longitude": -155.88013
        }
    }, 
    {
        "rating": 3.5, 
        "review_count": 468, 
        "name": "Sansei Seafood & Sushi Bar", 
        "distance": 1431.03825744201, 
        "categories": [
            "japanese", 
            "sushi", 
            "seafood"
        ], 
        "id": "sansei-seafood-and-sushi-bar-waikoloa", 
        "coord": {
            "latitude": 19.913799725728, 
            "longitude": -155.87931466288
        }
    }, 
    {
        "rating": 4.5, 
        "review_count": 24, 
        "name": "Bikeworks Beach and Sports", 
        "distance": 1432.3953258214399, 
        "categories": [
            "bikerentals", 
            "bikes", 
            "outdoorgear"
        ], 
        "id": "bikeworks-beach-and-sports-waikoloa", 
        "coord": {
            "latitude": 19.9135200700879, 
            "longitude": -155.879691272271
        }
    }, 
    {
        "rating": 4.0, 
        "review_count": 26, 
        "name": "Kings' Shops", 
        "distance": 1482.8778280398499, 
        "categories": [
            "shoppingcenters"
        ], 
        "id": "kings-shops-waikoloa-2", 
        "coord": {
            "latitude": 19.9142888848616, 
            "longitude": -155.877944946289
        }
    }, 
    {
        "rating": 5.0, 
        "review_count": 4, 
        "name": "The Islands At Mauna Lani", 
        "distance": 1951.0899850236567, 
        "categories": [
            "hotels"
        ], 
        "id": "the-islands-at-mauna-lani-kamuela-2", 
        "coord": {
            "latitude": 19.9370859, 
            "longitude": -155.875118
        }
    }, 
    {
        "rating": 5.0, 
        "review_count": 1, 
        "name": "Mauna Lani Point", 
        "distance": 2039.8651494691728, 
        "categories": [
            "hotels"
        ], 
        "id": "mauna-lani-point-waimea", 
        "coord": {
            "latitude": 19.9385033, 
            "longitude": -155.8755756
        }
    }, 
    {
        "rating": 4.0, 
        "review_count": 90, 
        "name": "Kings' Land by Hilton Grand Vacations", 
        "distance": 2305.6596777310688, 
        "categories": [
            "resorts"
        ], 
        "id": "kings-land-by-hilton-grand-vacations-waikoloa", 
        "coord": {
            "latitude": 19.926804, 
            "longitude": -155.865824
        }
    }, 
    {
        "rating": 4.5, 
        "review_count": 155, 
        "name": "Napua at Mauna Lani Beach Club", 
        "distance": 2523.0418735812327, 
        "categories": [
            "hawaiian", 
            "seafood"
        ], 
        "id": "napua-at-mauna-lani-beach-club-kamuela", 
        "coord": {
            "latitude": 19.94172, 
            "longitude": -155.87244
        }
    }, 
    {
        "rating": 4.0, 
        "review_count": 16, 
        "name": "Aston Waikoloa Colony Villas", 
        "distance": 2574.928629010044, 
        "categories": [
            "hotels"
        ], 
        "id": "aston-waikoloa-colony-villas-kamuela", 
        "coord": {
            "latitude": 19.9418602, 
            "longitude": -155.8718414
        }
    }, 
    {
        "rating": 4.5, 
        "review_count": 22, 
        "name": "Mauna Lani Sea Aventures", 
        "distance": 2602.111811392788, 
        "categories": [
            "boating", 
            "snorkeling", 
            "scuba"
        ], 
        "id": "mauna-lani-sea-aventures-kamuela", 
        "coord": {
            "latitude": 19.942207821557, 
            "longitude": -155.871877670288
        }
    }, 
    {
        "rating": 3.5, 
        "review_count": 26, 
        "name": "Shiono at Mauna Lani", 
        "distance": 2640.340052279825, 
        "categories": [
            "japanese", 
            "sushi"
        ], 
        "id": "shiono-at-mauna-lani-hawaii", 
        "coord": {
            "latitude": 19.9371018, 
            "longitude": -155.8665483
        }
    }, 
    {
        "rating": 3.5, 
        "review_count": 3, 
        "name": "Anaeho'omalu Beach", 
        "distance": 3073.541906058502, 
        "categories": [
            "beaches"
        ], 
        "id": "anaehoomalu-beach-waikoloa-2", 
        "coord": {
            "latitude": 19.9235599, 
            "longitude": -155.8583
        }
    }, 
    {
        "rating": 5.0, 
        "review_count": 3, 
        "name": "Mauna Lani Terrace Condominium", 
        "distance": 3077.004669340093, 
        "categories": [
            "hotels"
        ], 
        "id": "mauna-lani-terrace-condominium-waimea", 
        "coord": {
            "latitude": 19.943761, 
            "longitude": -155.866937
        }
    }, 
    {
        "rating": 5.0, 
        "review_count": 1, 
        "name": "Palm Villas at Mauna Lani", 
        "distance": 3077.293453795267, 
        "categories": [
            "hotels"
        ], 
        "id": "palm-villas-at-mauna-lani-kamuela", 
        "coord": {
            "latitude": 19.9401875, 
            "longitude": -155.8637238
        }
    }, 
    {
        "rating": 3.5, 
        "review_count": 12, 
        "name": "Bay Terrace Restaurant", 
        "distance": 3193.4886770013613, 
        "categories": [
            "newamerican"
        ], 
        "id": "bay-terrace-restaurant-kohala-coast", 
        "coord": {
            "latitude": 19.9457540293961, 
            "longitude": -155.867566368194
        }
    }, 
    {
        "rating": 4.0, 
        "review_count": 216, 
        "name": "CanoeHouse", 
        "distance": 3292.2335366799234, 
        "categories": [
            "newamerican", 
            "asianfusion", 
            "hawaiian"
        ], 
        "id": "canoehouse-kohala-coast", 
        "coord": {
            "latitude": 19.946519, 
            "longitude": -155.867059
        }
    }, 
    {
        "rating": 4.0, 
        "review_count": 28, 
        "name": "Mauna Lani Resort Golf", 
        "distance": 3317.7554308413514, 
        "categories": [
            "golf"
        ], 
        "id": "mauna-lani-resort-golf-kamuela", 
        "coord": {
            "latitude": 19.9466050401678, 
            "longitude": -155.866792201996
        }
    }, 
    {
        "rating": 5.0, 
        "review_count": 11, 
        "name": "Maya Parish Yoga", 
        "distance": 3331.099039121393, 
        "categories": [
            "yoga"
        ], 
        "id": "maya-parish-yoga-kohala-coast-3", 
        "coord": {
            "latitude": 19.9436426810229, 
            "longitude": -155.863509201074
        }
    }, 
    {
        "rating": 5.0, 
        "review_count": 1, 
        "name": "The Beach Club", 
        "distance": 3410.923152198156, 
        "categories": [
            "salad", 
            "soup", 
            "sandwiches"
        ], 
        "id": "the-beach-club-kamuela", 
        "coord": {
            "latitude": 19.9455, 
            "longitude": -155.86427
        }
    }, 
    {
        "rating": 3.5, 
        "review_count": 3, 
        "name": "Lamonts Gift & Sundry Shops", 
        "distance": 3411.7433402649617, 
        "categories": [
            "flowers"
        ], 
        "id": "lamonts-gift-and-sundry-shops-kamuela", 
        "coord": {
            "latitude": 19.9414635, 
            "longitude": -155.8607692
        }
    }, 
    {
        "rating": 3.5, 
        "review_count": 12, 
        "name": "Ocean Grill", 
        "distance": 3411.7433402649617, 
        "categories": [
            "newamerican"
        ], 
        "id": "ocean-grill-kamuela", 
        "coord": {
            "latitude": 19.9414635, 
            "longitude": -155.8607692
        }
    }, 
    {
        "rating": 3.5, 
        "review_count": 16, 
        "name": "Puako Petroglyphs", 
        "distance": 3412.2356179685553, 
        "categories": [
            "parks"
        ], 
        "id": "puako-petroglyphs-kohala-coast", 
        "coord": {
            "latitude": 19.9414635, 
            "longitude": -155.8607635
        }
    }, 
    {
        "rating": 4.5, 
        "review_count": 182, 
        "name": "Mauna Lani Bay Hotel", 
        "distance": 3531.8760608072107, 
        "categories": [
            "resorts"
        ], 
        "id": "mauna-lani-bay-hotel-kohala-coast-2", 
        "coord": {
            "latitude": 19.9487430930397, 
            "longitude": -155.866298675537
        }
    }, 
    {
        "rating": 5.0, 
        "review_count": 1, 
        "name": "The Fine Hawaiian Gift Gallery", 
        "distance": 3585.2543436188826, 
        "categories": [
            "souvenirs", 
            "giftshops", 
            "jewelry"
        ], 
        "id": "the-fine-hawaiian-gift-gallery-kamuela", 
        "coord": {
            "latitude": 19.9410046, 
            "longitude": -155.8584785
        }
    }, 
    {
        "rating": 4.0, 
        "review_count": 303, 
        "name": "Tommy Bahama Restaurant | Bar | Store - Mauna Lani", 
        "distance": 3617.138132790472, 
        "categories": [
            "newamerican", 
            "seafood", 
            "hawaiian"
        ], 
        "id": "tommy-bahama-restaurant-bar-store-mauna-lani-kamuela", 
        "coord": {
            "latitude": 19.941778, 
            "longitude": -155.858634
        }
    }, 
    {
        "rating": 3.0, 
        "review_count": 1, 
        "name": "Hawaiian Island Creations", 
        "distance": 3622.8629916315, 
        "categories": [
            "sportswear", 
            "surfshop", 
            "swimwear"
        ], 
        "id": "hawaiian-island-creations-kohala", 
        "coord": {
            "latitude": 19.941318, 
            "longitude": -155.858261
        }
    }, 
    {
        "rating": 4.5, 
        "review_count": 16, 
        "name": "Kona Kozy's Comedy & Magic Show", 
        "distance": 3628.6650383150095, 
        "categories": [
            "magicians"
        ], 
        "id": "kona-kozys-comedy-and-magic-show-kohala-coast-2", 
        "coord": {
            "latitude": 19.9417636504009, 
            "longitude": -155.858493235742
        }
    }, 
    {
        "rating": 4.0, 
        "review_count": 93, 
        "name": "The Blue Room Brasserie & Bar", 
        "distance": 3642.074342705096, 
        "categories": [
            "french", 
            "brasseries", 
            "hawaiian"
        ], 
        "id": "the-blue-room-brasserie-and-bar-waikoloa-village", 
        "coord": {
            "latitude": 19.9415336364821, 
            "longitude": -155.858187043789
        }
    }, 
    {
        "rating": 3.5, 
        "review_count": 17, 
        "name": "The Shops at Mauna Lani", 
        "distance": 3642.3414952712837, 
        "categories": [
            "shoppingcenters"
        ], 
        "id": "the-shops-at-mauna-lani-kamuela", 
        "coord": {
            "latitude": 19.941078241045, 
            "longitude": -155.857887268066
        }
    }, 
    {
        "rating": 4.0, 
        "review_count": 353, 
        "name": "Monstera", 
        "distance": 3653.908854445425, 
        "categories": [
            "japanese"
        ], 
        "id": "monstera-kohala-coast-2", 
        "coord": {
            "latitude": 19.941192, 
            "longitude": -155.857831
        }
    }, 
    {
        "rating": 3.5, 
        "review_count": 3, 
        "name": "Hulakai Hawaii", 
        "distance": 3655.464687931549, 
        "categories": [
            "sportgoods"
        ], 
        "id": "hulakai-hawaii-waimea", 
        "coord": {
            "latitude": 19.9412708, 
            "longitude": -155.8578644
        }
    }, 
    {
        "rating": 4.0, 
        "review_count": 6, 
        "name": "The Great 4-D Movie Ride", 
        "distance": 3655.464687931549, 
        "categories": [
            "arts"
        ], 
        "id": "the-great-4-d-movie-ride-kamuela", 
        "coord": {
            "latitude": 19.9412708, 
            "longitude": -155.8578644
        }
    }, 
    {
        "rating": 4.0, 
        "review_count": 71, 
        "name": "Kimobean Hawaiian Coffee", 
        "distance": 3655.464687931549, 
        "categories": [
            "coffee"
        ], 
        "id": "kimobean-hawaiian-coffee-kamuela", 
        "coord": {
            "latitude": 19.9412708, 
            "longitude": -155.8578644
        }
    }, 
    {
        "rating": 5.0, 
        "review_count": 1, 
        "name": "Reyn Spooner", 
        "distance": 3655.820412220219, 
        "categories": [
            "menscloth", 
            "childcloth", 
            "swimwear"
        ], 
        "id": "reyn-spooner-kohala-coast", 
        "coord": {
            "latitude": 19.94127, 
            "longitude": -155.8578599
        }
    }, 
    {
        "rating": 4.0, 
        "review_count": 82, 
        "name": "Foodland Farms", 
        "distance": 3655.820412220219, 
        "categories": [
            "grocery"
        ], 
        "id": "foodland-farms-kamuela-2", 
        "coord": {
            "latitude": 19.94127, 
            "longitude": -155.8578599
        }
    }, 
    {
        "rating": 4.0, 
        "review_count": 142, 
        "name": "Ruth's Chris Steak House", 
        "distance": 3655.820412220219, 
        "categories": [
            "steak"
        ], 
        "id": "ruths-chris-steak-house-kamuela-2", 
        "coord": {
            "latitude": 19.94127, 
            "longitude": -155.8578599
        }
    }, 
    {
        "rating": 5.0, 
        "review_count": 5, 
        "name": "Jourabchi Botique", 
        "distance": 3655.820412220219, 
        "categories": [
            "womenscloth", 
            "lingerie", 
            "accessories"
        ], 
        "id": "jourabchi-botique-waimea", 
        "coord": {
            "latitude": 19.94127, 
            "longitude": -155.8578599
        }
    }, 
    {
        "rating": 3.0, 
        "review_count": 1, 
        "name": "Island's Edge Art & Design", 
        "distance": 3655.820412220219, 
        "categories": [
            "galleries"
        ], 
        "id": "islands-edge-art-and-design-kamuela", 
        "coord": {
            "latitude": 19.94127, 
            "longitude": -155.8578599
        }
    }, 
    {
        "rating": 3.0, 
        "review_count": 1, 
        "name": "The Grin", 
        "distance": 3655.820412220219, 
        "categories": [
            "childcloth", 
            "menscloth", 
            "womenscloth"
        ], 
        "id": "the-grin-kamuela", 
        "coord": {
            "latitude": 19.94127, 
            "longitude": -155.8578599
        }
    }, 
    {
        "rating": 4.0, 
        "review_count": 2, 
        "name": "Lahaina Galleries", 
        "distance": 3655.820412220219, 
        "categories": [
            "galleries"
        ], 
        "id": "lahaina-galleries-kamuela", 
        "coord": {
            "latitude": 19.94127, 
            "longitude": -155.8578599
        }
    }, 
    {
        "rating": 5.0, 
        "review_count": 2, 
        "name": "Snorkel Bob's", 
        "distance": 3655.820412220219, 
        "categories": [
            "sportgoods"
        ], 
        "id": "snorkel-bobs-kamuela-2", 
        "coord": {
            "latitude": 19.94127, 
            "longitude": -155.8578599
        }
    }, 
    {
        "rating": 4.0, 
        "review_count": 6, 
        "name": "Oasis Lifestyle", 
        "distance": 3655.820412220219, 
        "categories": [
            "accessories", 
            "womenscloth", 
            "giftshops"
        ], 
        "id": "oasis-lifestyle-kamuela", 
        "coord": {
            "latitude": 19.94127, 
            "longitude": -155.8578599
        }
    }, 
    {
        "rating": 3.5, 
        "review_count": 78, 
        "name": "Juice 101", 
        "distance": 3662.5266684446574, 
        "categories": [
            "juicebars"
        ], 
        "id": "juice-101-kamuela", 
        "coord": {
            "latitude": 19.9409559533843, 
            "longitude": -155.857584849
        }
    }, 
    {
        "rating": 4.5, 
        "review_count": 186, 
        "name": "Under the Bodhi Tree", 
        "distance": 3675.055707504478, 
        "categories": [
            "vegan", 
            "vegetarian"
        ], 
        "id": "under-the-bodhi-tree-kamuela", 
        "coord": {
            "latitude": 19.9407106, 
            "longitude": -155.8572936
        }
    }, 
    {
        "rating": 4.5, 
        "review_count": 12, 
        "name": "Moana Salon & Day Spa", 
        "distance": 3712.095495037924, 
        "categories": [
            "spas", 
            "othersalons", 
            "massage"
        ], 
        "id": "moana-salon-and-day-spa-kamuela", 
        "coord": {
            "latitude": 19.9411664, 
            "longitude": -155.8571663
        }
    }, 
    {
        "rating": 5.0, 
        "review_count": 4, 
        "name": "Kahakai Bar", 
        "distance": 4010.4192375423063, 
        "categories": [
            "bars"
        ], 
        "id": "kahakai-bar-kamuela", 
        "coord": {
            "latitude": 19.9505231008171, 
            "longitude": -155.861509591341
        }
    }, 
    {
        "rating": 3.5, 
        "review_count": 26, 
        "name": "Brown's Deli", 
        "distance": 4114.982821962841, 
        "categories": [
            "delis"
        ], 
        "id": "browns-deli-kamuela", 
        "coord": {
            "latitude": 19.9512693870576, 
            "longitude": -155.860891342163
        }
    }, 
    {
        "rating": 4.0, 
        "review_count": 83, 
        "name": "Norio's Japanese Restaurant & Sushi Bar", 
        "distance": 4146.641606429076, 
        "categories": [
            "sushi", 
            "japanese"
        ], 
        "id": "norios-japanese-restaurant-and-sushi-bar-kohala-coast", 
        "coord": {
            "latitude": 19.9510629710106, 
            "longitude": -155.860219937477
        }
    }, 
    {
        "rating": 3.5, 
        "review_count": 17, 
        "name": "Luana Lounge", 
        "distance": 4180.5919250015095, 
        "categories": [
            "lounges"
        ], 
        "id": "luana-lounge-kamuela", 
        "coord": {
            "latitude": 19.9512794719826, 
            "longitude": -155.859990119934
        }
    }, 
    {
        "rating": 4.5, 
        "review_count": 24, 
        "name": "Spa Without Walls", 
        "distance": 4209.26413667715, 
        "categories": [
            "spas"
        ], 
        "id": "spa-without-walls-kamuela", 
        "coord": {
            "latitude": 19.9516374864038, 
            "longitude": -155.859990119934
        }
    }, 
    {
        "rating": 4.0, 
        "review_count": 189, 
        "name": "Brown's Beach House", 
        "distance": 4213.630349988333, 
        "categories": [
            "hawaiian", 
            "seafood"
        ], 
        "id": "browns-beach-house-kohala-coast-2", 
        "coord": {
            "latitude": 19.951022306193, 
            "longitude": -155.859260559082
        }
    }, 
    {
        "rating": 4.5, 
        "review_count": 2, 
        "name": "Ocean Bar", 
        "distance": 4238.5613119502605, 
        "categories": [
            "restaurants"
        ], 
        "id": "ocean-bar-hawaii", 
        "coord": {
            "latitude": 19.9511077, 
            "longitude": -155.8590139
        }
    }, 
    {
        "rating": 4.5, 
        "review_count": 15, 
        "name": "Pacific Dream Photography", 
        "distance": 4284.938418112173, 
        "categories": [
            "eventphotography", 
            "videographers", 
            "sessionphotography"
        ], 
        "id": "pacific-dream-photography-waimea", 
        "coord": {
            "latitude": 19.950913, 
            "longitude": -155.858191
        }
    }, 
    {
        "rating": 4.0, 
        "review_count": 282, 
        "name": "Fairmont Orchid", 
        "distance": 4347.730397336995, 
        "categories": [
            "hotels", 
            "resorts"
        ], 
        "id": "fairmont-orchid-kohala-coast", 
        "coord": {
            "latitude": 19.953019, 
            "longitude": -155.859618
        }
    }, 
    {
        "rating": 5.0, 
        "review_count": 2, 
        "name": "Holoholokai Beach Park", 
        "distance": 4536.044272074744, 
        "categories": [
            "beaches"
        ], 
        "id": "holoholokai-beach-park-waimea", 
        "coord": {
            "latitude": 19.9511290439855, 
            "longitude": -155.855140124072
        }
    }, 
    {
        "rating": 4.5, 
        "review_count": 4, 
        "name": "Puako Bay Beach", 
        "distance": 6608.240861498773, 
        "categories": [
            "beaches"
        ], 
        "id": "puako-bay-beach-puako", 
        "coord": {
            "latitude": 19.968463, 
            "longitude": -155.845482
        }
    }, 
    {
        "rating": 4.5, 
        "review_count": 10, 
        "name": "The Puako General Store", 
        "distance": 7282.440300882578, 
        "categories": [
            "grocery"
        ], 
        "id": "the-puako-general-store-kamuela", 
        "coord": {
            "latitude": 19.9717643, 
            "longitude": -155.8397691
        }
    }, 
    {
        "rating": 5.0, 
        "review_count": 1, 
        "name": "The Big Island of Hawaii", 
        "distance": 7318.10476886599, 
        "categories": [
            "beaches"
        ], 
        "id": "the-big-island-of-hawaii-waimea", 
        "coord": {
            "latitude": 19.95636, 
            "longitude": -155.82667
        }
    }, 
    {
        "rating": 5.0, 
        "review_count": 1, 
        "name": "Dive Puako", 
        "distance": 7362.867934621266, 
        "categories": [
            "scuba"
        ], 
        "id": "dive-puako-kamuela", 
        "coord": {
            "latitude": 19.9721203, 
            "longitude": -155.8390503
        }
    }, 
    {
        "rating": 4.5, 
        "review_count": 3, 
        "name": "Honuala'i", 
        "distance": 7701.966958934853, 
        "categories": [
            "venues"
        ], 
        "id": "honualai-kamuela", 
        "coord": {
            "latitude": 19.972376, 
            "longitude": -155.83473
        }
    }, 
    {
        "rating": 4.5, 
        "review_count": 47, 
        "name": "Adventure X Rafting", 
        "distance": 8071.6288648790205, 
        "categories": [
            "rafting"
        ], 
        "id": "adventure-x-rafting-waimea", 
        "coord": {
            "latitude": 19.974091, 
            "longitude": -155.831579
        }
    }, 
    {
        "rating": 5.0, 
        "review_count": 58, 
        "name": "Hawaii Surf and Kayak", 
        "distance": 8075.324954727419, 
        "categories": [
            "paddleboarding", 
            "rafting", 
            "tours"
        ], 
        "id": "hawaii-surf-and-kayak-puako-3", 
        "coord": {
            "latitude": 19.9741328245072, 
            "longitude": -155.831572196204
        }
    }, 
    {
        "rating": 5.0, 
        "review_count": 13, 
        "name": "Liquid Hawaii", 
        "distance": 8094.224447196382, 
        "categories": [
            "boating", 
            "scuba"
        ], 
        "id": "liquid-hawaii-waimea", 
        "coord": {
            "latitude": 19.9737010823831, 
            "longitude": -155.830898258105
        }
    }, 
    {
        "rating": 5.0, 
        "review_count": 5, 
        "name": "Molly Irene Media", 
        "distance": 8641.882159701236, 
        "categories": [
            "photographers", 
            "videographers"
        ], 
        "id": "molly-irene-media-kamuela", 
        "coord": {
            "latitude": 19.9756508, 
            "longitude": -155.8257113
        }
    }, 
    {
        "rating": 4.5, 
        "review_count": 48, 
        "name": "Beach 69", 
        "distance": 8864.539201338626, 
        "categories": [
            "beaches"
        ], 
        "id": "beach-69-hawaii", 
        "coord": {
            "latitude": 19.981536, 
            "longitude": -155.828708
        }
    }, 
    {
        "rating": 5.0, 
        "review_count": 5, 
        "name": "Waialea Beach", 
        "distance": 9378.361932649546, 
        "categories": [
            "parks"
        ], 
        "id": "waialea-beach-kamuela", 
        "coord": {
            "latitude": 19.98461, 
            "longitude": -155.82501
        }
    }, 
    {
        "rating": 4.0, 
        "review_count": 10, 
        "name": "Kiholo Bay", 
        "distance": 9511.914225888808, 
        "categories": [
            "beaches"
        ], 
        "id": "kiholo-bay-kailua-kona", 
        "coord": {
            "latitude": 19.8486969611905, 
            "longitude": -155.931311157312
        }
    }, 
    {
        "rating": 4.0, 
        "review_count": 71, 
        "name": "Paniolo Greens", 
        "distance": 9674.855976533387, 
        "categories": [
            "hotels", 
            "resorts", 
            "vacation_rentals"
        ], 
        "id": "paniolo-greens-waikoloa-2", 
        "coord": {
            "latitude": 19.9269326504597, 
            "longitude": -155.795293704841
        }
    }, 
    {
        "rating": 4.0, 
        "review_count": 12, 
        "name": "Waikoloa Village Golf Club", 
        "distance": 9939.926841895895, 
        "categories": [
            "golf"
        ], 
        "id": "waikoloa-village-golf-club-waikoloa-village-2", 
        "coord": {
            "latitude": 19.9305887, 
            "longitude": -155.7929629
        }
    }, 
    {
        "rating": 4.5, 
        "review_count": 225, 
        "name": "Hapuna Beach State Recreation Area", 
        "distance": 9959.470993048299, 
        "categories": [
            "swimmingpools", 
            "parks", 
            "beaches"
        ], 
        "id": "hapuna-beach-state-recreation-area-kamuela", 
        "coord": {
            "latitude": 19.9920219254243, 
            "longitude": -155.825329290784
        }
    }, 
    {
        "rating": 5.0, 
        "review_count": 5, 
        "name": "Big Hawaiian Island Photography", 
        "distance": 10216.771586598821, 
        "categories": [
            "eventphotography", 
            "sessionphotography"
        ], 
        "id": "big-hawaiian-island-photography-waikoloa-3", 
        "coord": {
            "latitude": 19.9372484, 
            "longitude": -155.7910681
        }
    }, 
    {
        "rating": 4.5, 
        "review_count": 6, 
        "name": "Ohana Carvers", 
        "distance": 10216.771586598821, 
        "categories": [
            "galleries"
        ], 
        "id": "ohana-carvers-waikoloa-village", 
        "coord": {
            "latitude": 19.9372484, 
            "longitude": -155.7910681
        }
    }, 
    {
        "rating": 3.0, 
        "review_count": 2, 
        "name": "Na Hoku", 
        "distance": 10216.771586598821, 
        "categories": [
            "jewelry", 
            "watches"
        ], 
        "id": "na-hoku-waikoloa-3", 
        "coord": {
            "latitude": 19.9372484, 
            "longitude": -155.7910681
        }
    }, 
    {
        "rating": 3.5, 
        "review_count": 21, 
        "name": "Mauna Kea Luau", 
        "distance": 10259.501045406125, 
        "categories": [
            "theater", 
            "hawaiian"
        ], 
        "id": "mauna-kea-luau-kohala", 
        "coord": {
            "latitude": 19.9978246184914, 
            "longitude": -155.828340783815
        }
    }, 
    {
        "rating": 4.0, 
        "review_count": 4, 
        "name": "Paradise Grill", 
        "distance": 10294.443979998036, 
        "categories": [
            "food"
        ], 
        "id": "paradise-grill-kawaihae", 
        "coord": {
            "latitude": 19.99192, 
            "longitude": -155.8204299
        }
    }, 
    {
        "rating": 4.0, 
        "review_count": 5, 
        "name": "Kohala Club Hotel", 
        "distance": 10344.574302332056, 
        "categories": [
            "hotels"
        ], 
        "id": "kohala-club-hotel-waikoloa-2", 
        "coord": {
            "latitude": 19.9317918, 
            "longitude": -155.7891852
        }
    }, 
    {
        "rating": 3.5, 
        "review_count": 47, 
        "name": "Coast Grille", 
        "distance": 10402.758924337993, 
        "categories": [
            "seafood"
        ], 
        "id": "coast-grille-kamuela-2", 
        "coord": {
            "latitude": 19.9950733, 
            "longitude": -155.8225861
        }
    }, 
    {
        "rating": 5.0, 
        "review_count": 1, 
        "name": "Turtle Point", 
        "distance": 10402.758924337993, 
        "categories": [
            "wedding_planning"
        ], 
        "id": "turtle-point-kamuela", 
        "coord": {
            "latitude": 19.9950733, 
            "longitude": -155.8225861
        }
    }, 
    {
        "rating": 4.0, 
        "review_count": 5, 
        "name": "Cafe Hapuna", 
        "distance": 10402.758924337993, 
        "categories": [
            "diyfood", 
            "coffee", 
            "convenience"
        ], 
        "id": "cafe-hapuna-kamuela", 
        "coord": {
            "latitude": 19.9950733, 
            "longitude": -155.8225861
        }
    }, 
    {
        "rating": 4.0, 
        "review_count": 4, 
        "name": "Cafe Hapuna", 
        "distance": 10402.758924337993, 
        "categories": [
            "cafes"
        ], 
        "id": "cafe-hapuna-kamuela-2", 
        "coord": {
            "latitude": 19.9950733, 
            "longitude": -155.8225861
        }
    }, 
    {
        "rating": 4.0, 
        "review_count": 3, 
        "name": "Let's Go Crabbing", 
        "distance": 10402.758924337993, 
        "categories": [
            "buffets"
        ], 
        "id": "lets-go-crabbing-waimea", 
        "coord": {
            "latitude": 19.9950733, 
            "longitude": -155.8225861
        }
    }, 
    {
        "rating": 4.0, 
        "review_count": 290, 
        "name": "Island Lava Java Bake & Brew Bistro", 
        "distance": 10456.548442790283, 
        "categories": [
            "coffee", 
            "breakfast_brunch", 
            "burgers"
        ], 
        "id": "island-lava-java-bake-and-brew-bistro-waikoloa", 
        "coord": {
            "latitude": 19.9274542898257, 
            "longitude": -155.787841879201
        }
    }, 
    {
        "rating": 4.5, 
        "review_count": 8, 
        "name": "On Stage Salon Inc", 
        "distance": 10497.009463792405, 
        "categories": [
            "othersalons", 
            "hair"
        ], 
        "id": "on-stage-salon-inc-waikoloa", 
        "coord": {
            "latitude": 19.92758, 
            "longitude": -155.78746
        }
    }, 
    {
        "rating": 4.0, 
        "review_count": 41, 
        "name": "Racha Thai Cuisine", 
        "distance": 10498.5679394086, 
        "categories": [
            "thai"
        ], 
        "id": "racha-thai-cuisine-waikoloa-2", 
        "coord": {
            "latitude": 19.9275799, 
            "longitude": -155.7874451
        }
    }, 
    {
        "rating": 5.0, 
        "review_count": 3, 
        "name": "Aloha Natural Health", 
        "distance": 10498.5679394086, 
        "categories": [
            "naturopathic", 
            "acupuncture", 
            "massage"
        ], 
        "id": "aloha-natural-health-waikoloa-village", 
        "coord": {
            "latitude": 19.9275799, 
            "longitude": -155.7874451
        }
    }, 
    {
        "rating": 4.0, 
        "review_count": 266, 
        "name": "Pueo's Osteria", 
        "distance": 10526.422397114151, 
        "categories": [
            "italian"
        ], 
        "id": "pueos-osteria-waikoloa-village", 
        "coord": {
            "latitude": 19.927037052129, 
            "longitude": -155.787159312119
        }
    }, 
    {
        "rating": 5.0, 
        "review_count": 1, 
        "name": "Honua Cleaning", 
        "distance": 10527.718956005205, 
        "categories": [
            "homecleaning", 
            "vacation_rentals", 
            "officecleaning"
        ], 
        "id": "honua-cleaning-waikoloa-3", 
        "coord": {
            "latitude": 19.9274117630706, 
            "longitude": -155.787160065765
        }
    }, 
    {
        "rating": 5.0, 
        "review_count": 1, 
        "name": "Island Bikram Yoga", 
        "distance": 10535.085149532435, 
        "categories": [
            "yoga"
        ], 
        "id": "island-bikram-yoga-waikoloa-2", 
        "coord": {
            "latitude": 19.9268705103066, 
            "longitude": -155.787071193216
        }
    }, 
    {
        "rating": 4.5, 
        "review_count": 56, 
        "name": "Waikoloa Village Market", 
        "distance": 10566.172550391477, 
        "categories": [
            "grocery"
        ], 
        "id": "waikoloa-village-market-waikoloa", 
        "coord": {
            "latitude": 19.9287434, 
            "longitude": -155.7868517
        }
    }, 
    {
        "rating": 5.0, 
        "review_count": 4, 
        "name": "Waikoloa Village Market Pharmacy", 
        "distance": 10566.172550391477, 
        "categories": [
            "drugstores"
        ], 
        "id": "waikoloa-village-market-pharmacy-waikoloa", 
        "coord": {
            "latitude": 19.9287434, 
            "longitude": -155.7868517
        }
    }, 
    {
        "rating": 4.5, 
        "review_count": 3, 
        "name": "Vows In Hawaii", 
        "distance": 10570.405325165604, 
        "categories": [
            "wedding_planning"
        ], 
        "id": "vows-in-hawaii-waikoloa-village", 
        "coord": {
            "latitude": 19.9289099, 
            "longitude": -155.78682
        }
    }, 
    {
        "rating": 5.0, 
        "review_count": 1, 
        "name": "Life and Light Hawaii Photography", 
        "distance": 10570.405325165604, 
        "categories": [
            "sessionphotography", 
            "eventphotography"
        ], 
        "id": "life-and-light-hawaii-photography-waikoloa-village", 
        "coord": {
            "latitude": 19.9289099, 
            "longitude": -155.78682
        }
    }, 
    {
        "rating": 3.5, 
        "review_count": 3, 
        "name": "As Hawi Turns", 
        "distance": 10570.405325165604, 
        "categories": [
            "giftshops"
        ], 
        "id": "as-hawi-turns-waikoloa", 
        "coord": {
            "latitude": 19.9289099, 
            "longitude": -155.78682
        }
    }, 
    {
        "rating": 5.0, 
        "review_count": 1, 
        "name": "Ocean Whisper Inc", 
        "distance": 10570.405325165604, 
        "categories": [
            "tours", 
            "boatcharters", 
            "vacationrentalagents"
        ], 
        "id": "ocean-whisper-inc-waikoloa-village", 
        "coord": {
            "latitude": 19.9289099, 
            "longitude": -155.78682
        }
    }, 
    {
        "rating": 5.0, 
        "review_count": 19, 
        "name": "Waikoloa Coast Divers", 
        "distance": 10570.405886119912, 
        "categories": [
            "scuba"
        ], 
        "id": "waikoloa-coast-divers-waikoloa", 
        "coord": {
            "latitude": 19.92891, 
            "longitude": -155.78682
        }
    }, 
    {
        "rating": 4.5, 
        "review_count": 40, 
        "name": "Anaeho'omalu Bay", 
        "distance": 10570.405886119912, 
        "categories": [
            "beaches"
        ], 
        "id": "anaehoomalu-bay-waikoloa", 
        "coord": {
            "latitude": 19.92891, 
            "longitude": -155.78682
        }
    }, 
    {
        "rating": 4.5, 
        "review_count": 4, 
        "name": "Anaehoomalu Beach", 
        "distance": 10570.405886119912, 
        "categories": [
            "beaches"
        ], 
        "id": "anaehoomalu-beach-waikoloa", 
        "coord": {
            "latitude": 19.92891, 
            "longitude": -155.78682
        }
    }, 
    {
        "rating": 5.0, 
        "review_count": 1, 
        "name": "Principle Limousine LLC.", 
        "distance": 10570.405886119912, 
        "categories": [
            "limos"
        ], 
        "id": "principle-limousine-llc-waikoloa", 
        "coord": {
            "latitude": 19.92891, 
            "longitude": -155.78682
        }
    }, 
    {
        "rating": 3.0, 
        "review_count": 2, 
        "name": "Paradise Weddings Hawaii", 
        "distance": 10570.405886119912, 
        "categories": [
            "eventplanning"
        ], 
        "id": "paradise-weddings-hawaii-waikoloa", 
        "coord": {
            "latitude": 19.92891, 
            "longitude": -155.78682
        }
    }, 
    {
        "rating": 5.0, 
        "review_count": 1, 
        "name": "Dara Wipp", 
        "distance": 10570.405886119912, 
        "categories": [
            "hair"
        ], 
        "id": "dara-wipp-waikoloa", 
        "coord": {
            "latitude": 19.92891, 
            "longitude": -155.78682
        }
    }, 
    {
        "rating": 3.0, 
        "review_count": 2, 
        "name": "Air Taxi & Tours", 
        "distance": 10570.405886119912, 
        "categories": [
            "taxis", 
            "limos"
        ], 
        "id": "air-taxi-and-tours-waikoloa", 
        "coord": {
            "latitude": 19.92891, 
            "longitude": -155.78682
        }
    }, 
    {
        "rating": 3.0, 
        "review_count": 1, 
        "name": "Haimoff & Haimoff Creations In Gold", 
        "distance": 10570.454239445055, 
        "categories": [
            "jewelry"
        ], 
        "id": "haimoff-and-haimoff-creations-in-gold-waikoloa", 
        "coord": {
            "latitude": 19.9289093, 
            "longitude": -155.7868195
        }
    }, 
    {
        "rating": 5.0, 
        "review_count": 8, 
        "name": "Passion Flowers By Nalani", 
        "distance": 10600.817113607349, 
        "categories": [
            "florists"
        ], 
        "id": "passion-flowers-by-nalani-waikoloa-village", 
        "coord": {
            "latitude": 19.9279709, 
            "longitude": -155.7864838
        }
    }, 
    {
        "rating": 4.0, 
        "review_count": 1, 
        "name": "Hot Tubs In Paradise", 
        "distance": 10601.21056693414, 
        "categories": [
            "hottubandpool"
        ], 
        "id": "hot-tubs-in-paradise-waikoloa", 
        "coord": {
            "latitude": 19.92797, 
            "longitude": -155.78648
        }
    }, 
    {
        "rating": 5.0, 
        "review_count": 3, 
        "name": "Island Thyme Gourmet", 
        "distance": 10601.21056693414, 
        "categories": [
            "gourmet"
        ], 
        "id": "island-thyme-gourmet-waikoloa", 
        "coord": {
            "latitude": 19.92797, 
            "longitude": -155.78648
        }
    }, 
    {
        "rating": 5.0, 
        "review_count": 2, 
        "name": "Simanjuntak Photography", 
        "distance": 10601.21056693414, 
        "categories": [
            "eventphotography", 
            "sessionphotography"
        ], 
        "id": "simanjuntak-photography-waikoloa", 
        "coord": {
            "latitude": 19.92797, 
            "longitude": -155.78648
        }
    }, 
    {
        "rating": 5.0, 
        "review_count": 2, 
        "name": "Aloha Photo Booth Rental", 
        "distance": 10601.21056693414, 
        "categories": [
            "partysupplies", 
            "photographers", 
            "musicvenues"
        ], 
        "id": "aloha-photo-booth-rental-waikoloa", 
        "coord": {
            "latitude": 19.92797, 
            "longitude": -155.78648
        }
    }, 
    {
        "rating": 5.0, 
        "review_count": 1, 
        "name": "Nail Delivery", 
        "distance": 10601.21056693414, 
        "categories": [
            "skincare", 
            "othersalons"
        ], 
        "id": "nail-delivery-waikoloa", 
        "coord": {
            "latitude": 19.92797, 
            "longitude": -155.78648
        }
    }, 
    {
        "rating": 5.0, 
        "review_count": 1, 
        "name": "Mauna Kea Cultrual Activities", 
        "distance": 10827.768994706012, 
        "categories": [
            "arts"
        ], 
        "id": "mauna-kea-cultrual-activities-kamuela", 
        "coord": {
            "latitude": 20.0021748712842, 
            "longitude": -155.825423137179
        }
    }, 
    {
        "rating": 4.5, 
        "review_count": 9, 
        "name": "Nicco Floral Design", 
        "distance": 10849.69356101722, 
        "categories": [
            "florists"
        ], 
        "id": "nicco-floral-design-waimea", 
        "coord": {
            "latitude": 19.9961565170239, 
            "longitude": -155.81745879773
        }
    }, 
    {
        "rating": 5.0, 
        "review_count": 1, 
        "name": "Kamakoa Nui Skate Park Hess", 
        "distance": 10955.223914305814, 
        "categories": [
            "skatingrinks"
        ], 
        "id": "kamakoa-nui-skate-park-hess-waikoloa-village", 
        "coord": {
            "latitude": 19.9537950103431, 
            "longitude": -155.787846408784
        }
    }, 
    {
        "rating": 4.0, 
        "review_count": 37, 
        "name": "Hau Tree", 
        "distance": 11167.698893680192, 
        "categories": [
            "seafood", 
            "bars", 
            "breakfast_brunch"
        ], 
        "id": "hau-tree-kamuela", 
        "coord": {
            "latitude": 20.0051963880262, 
            "longitude": -155.824275409566
        }
    }, 
    {
        "rating": 4.0, 
        "review_count": 137, 
        "name": "Mauna Kea Beach Hotel, Autograph Collection", 
        "distance": 11257.29609368164, 
        "categories": [
            "hotels"
        ], 
        "id": "mauna-kea-beach-hotel-autograph-collection-kohala-coast", 
        "coord": {
            "latitude": 20.0064941298615, 
            "longitude": -155.824703479021
        }
    }, 
    {
        "rating": 3.5, 
        "review_count": 16, 
        "name": "Copper Bar", 
        "distance": 11262.77667040695, 
        "categories": [
            "cocktailbars", 
            "tradamerican", 
            "hawaiian"
        ], 
        "id": "copper-bar-kamuela", 
        "coord": {
            "latitude": 20.0063843, 
            "longitude": -155.8244537
        }
    }, 
    {
        "rating": 4.0, 
        "review_count": 1, 
        "name": "Number3", 
        "distance": 11302.026278565489, 
        "categories": [
            "newamerican", 
            "resorts"
        ], 
        "id": "number3-waimea", 
        "coord": {
            "latitude": 20.0061894138963, 
            "longitude": -155.823537117263
        }
    }, 
    {
        "rating": 5.0, 
        "review_count": 40, 
        "name": "Kauna'oa Beach - Mauna Kea Beach", 
        "distance": 11351.002985028, 
        "categories": [
            "beaches"
        ], 
        "id": "kaunaoa-beach-mauna-kea-beach-kamuela", 
        "coord": {
            "latitude": 20.0074809006148, 
            "longitude": -155.824621836226
        }
    }, 
    {
        "rating": 4.5, 
        "review_count": 16, 
        "name": "Mauna Kea Golf", 
        "distance": 11357.609876367655, 
        "categories": [
            "golf"
        ], 
        "id": "mauna-kea-golf-kamuela", 
        "coord": {
            "latitude": 20.0078312, 
            "longitude": -155.8250343
        }
    }, 
    {
        "rating": 4.0, 
        "review_count": 101, 
        "name": "Manta Restaurant", 
        "distance": 11357.609876367655, 
        "categories": [
            "hawaiian", 
            "wine_bars"
        ], 
        "id": "manta-restaurant-kamuela-2", 
        "coord": {
            "latitude": 20.0078312, 
            "longitude": -155.8250343
        }
    }, 
    {
        "rating": 3.5, 
        "review_count": 20, 
        "name": "Clam Bake", 
        "distance": 11357.609876367655, 
        "categories": [
            "buffets"
        ], 
        "id": "clam-bake-kamuela", 
        "coord": {
            "latitude": 20.0078312, 
            "longitude": -155.8250343
        }
    }, 
    {
        "rating": 5.0, 
        "review_count": 4, 
        "name": "Seaside Tennis Club", 
        "distance": 11358.056783068334, 
        "categories": [
            "tennis", 
            "sportgoods"
        ], 
        "id": "seaside-tennis-club-kamuela", 
        "coord": {
            "latitude": 20.0078316, 
            "longitude": -155.8250275
        }
    }, 
    {
        "rating": 3.5, 
        "review_count": 2, 
        "name": "Accents Gift Shop", 
        "distance": 11358.056783068334, 
        "categories": [
            "flowers"
        ], 
        "id": "accents-gift-shop-kamuela", 
        "coord": {
            "latitude": 20.0078316, 
            "longitude": -155.8250275
        }
    }, 
    {
        "rating": 4.0, 
        "review_count": 204, 
        "name": "Hapuna Beach Prince Hotel", 
        "distance": 11385.355640988293, 
        "categories": [
            "hotels"
        ], 
        "id": "hapuna-beach-prince-hotel-kohala-coast-2", 
        "coord": {
            "latitude": 19.999786, 
            "longitude": -155.814072
        }
    }, 
    {
        "rating": 4.5, 
        "review_count": 98, 
        "name": "Blue Hawaiian Helicopter Tours", 
        "distance": 11648.41459888937, 
        "categories": [
            "tours"
        ], 
        "id": "blue-hawaiian-helicopter-tours-waikoloa", 
        "coord": {
            "latitude": 19.9113835141555, 
            "longitude": -155.777206420898
        }
    }, 
    {
        "rating": 5.0, 
        "review_count": 1, 
        "name": "Sandbar Mauna Kea", 
        "distance": 11757.728120466367, 
        "categories": [
            "bars"
        ], 
        "id": "sandbar-mauna-kea-kamuela", 
        "coord": {
            "latitude": 20.0100098, 
            "longitude": -155.8216858
        }
    }, 
    {
        "rating": 4.5, 
        "review_count": 4, 
        "name": "Number 3", 
        "distance": 11758.108696800258, 
        "categories": [
            "newamerican"
        ], 
        "id": "number-3-kamuela", 
        "coord": {
            "latitude": 20.01001, 
            "longitude": -155.8216799
        }
    }, 
    {
        "rating": 3.5, 
        "review_count": 7, 
        "name": "Hawaii Island Weddings by Kauka", 
        "distance": 11779.395956628932, 
        "categories": [
            "wedding_planning"
        ], 
        "id": "hawaii-island-weddings-by-kauka-waikoloa", 
        "coord": {
            "latitude": 19.82922, 
            "longitude": -155.83662
        }
    }, 
    {
        "rating": 5.0, 
        "review_count": 1, 
        "name": "Wishard Gallery", 
        "distance": 11779.395956628932, 
        "categories": [
            "galleries"
        ], 
        "id": "wishard-gallery-waikoloa", 
        "coord": {
            "latitude": 19.82922, 
            "longitude": -155.83662
        }
    }, 
    {
        "rating": 5.0, 
        "review_count": 1, 
        "name": "L'core Paris", 
        "distance": 11779.401226954142, 
        "categories": [
            "cosmetics"
        ], 
        "id": "l-core-paris-waikoloa-village-3", 
        "coord": {
            "latitude": 19.8292199307896, 
            "longitude": -155.836620032787
        }
    }, 
    {
        "rating": 5.0, 
        "review_count": 1, 
        "name": "Mau'umae Beach", 
        "distance": 12227.843081345265, 
        "categories": [
            "beaches"
        ], 
        "id": "mauumae-beach-kohala", 
        "coord": {
            "latitude": 20.0160919930314, 
            "longitude": -155.823078344816
        }
    }, 
    {
        "rating": 5.0, 
        "review_count": 1, 
        "name": "Wai'ula'ula At Mauna Kea Resort", 
        "distance": 12303.184765768812, 
        "categories": [
            "vacation_rentals"
        ], 
        "id": "waiulaula-at-mauna-kea-resort-kamuela", 
        "coord": {
            "latitude": 20.00528, 
            "longitude": -155.80744
        }
    }, 
    {
        "rating": 4.0, 
        "review_count": 8, 
        "name": "Hapuna Golf Course", 
        "distance": 12473.545031762655, 
        "categories": [
            "golf"
        ], 
        "id": "hapuna-golf-course-kamuela", 
        "coord": {
            "latitude": 20.007024, 
            "longitude": -155.807036
        }
    }, 
    {
        "rating": 4.0, 
        "review_count": 14, 
        "name": "Big Island Country Club", 
        "distance": 12718.19612540505, 
        "categories": [
            "countryclubs"
        ], 
        "id": "big-island-country-club-kailua-kona-2", 
        "coord": {
            "latitude": 19.8168659848723, 
            "longitude": -155.843918323517
        }
    }, 
    {
        "rating": 5.0, 
        "review_count": 3, 
        "name": "Ala Kahakai", 
        "distance": 12840.887608565747, 
        "categories": [
            "parks"
        ], 
        "id": "ala-kahakai-kawaihae", 
        "coord": {
            "latitude": 20.0224157719421, 
            "longitude": -155.822647016888
        }
    }, 
    {
        "rating": 4.0, 
        "review_count": 14, 
        "name": "Spencer State Beach Park", 
        "distance": 12973.920761332607, 
        "categories": [
            "beaches"
        ], 
        "id": "spencer-state-beach-park-kawaihae", 
        "coord": {
            "latitude": 20.0233550756599, 
            "longitude": -155.821838378906
        }
    }, 
    {
        "rating": 4.0, 
        "review_count": 18, 
        "name": "Sunshine Helicopters", 
        "distance": 13103.689773773274, 
        "categories": [
            "tours"
        ], 
        "id": "sunshine-helicopters-kamuela", 
        "coord": {
            "latitude": 20.0047860457519, 
            "longitude": -155.796110630035
        }
    }, 
    {
        "rating": 5.0, 
        "review_count": 1, 
        "name": "Kohala Tours", 
        "distance": 13133.299201432052, 
        "categories": [
            "snorkeling", 
            "whalewatchingtours"
        ], 
        "id": "kohala-tours-kawaihae-2", 
        "coord": {
            "latitude": 20.0279319279074, 
            "longitude": -155.827063915869
        }
    }, 
    {
        "rating": 5.0, 
        "review_count": 2, 
        "name": "Sunshine Party Rental LLC", 
        "distance": 13587.049444305369, 
        "categories": [
            "partyequipmentrentals"
        ], 
        "id": "sunshine-party-rental-llc-kailua-kona", 
        "coord": {
            "latitude": 19.80224, 
            "longitude": -155.903606
        }
    }, 
    {
        "rating": 4.5, 
        "review_count": 20, 
        "name": "Pu'ukohola Heiau National Historic Site", 
        "distance": 13596.971564964551, 
        "categories": [
            "parks", 
            "tours"
        ], 
        "id": "puukohola-heiau-national-historic-site-kawaihae", 
        "coord": {
            "latitude": 20.0217325, 
            "longitude": -155.8089106
        }
    }, 
    {
        "rating": 4.0, 
        "review_count": 1, 
        "name": "Aloha Debbie Properties", 
        "distance": 13693.377549209865, 
        "categories": [
            "vacation_rentals"
        ], 
        "id": "aloha-debbie-properties-kamuela", 
        "coord": {
            "latitude": 20.023122, 
            "longitude": -155.8093286
        }
    }, 
    {
        "rating": 4.0, 
        "review_count": 6, 
        "name": "Absolute Salon", 
        "distance": 13730.868650722494, 
        "categories": [
            "hair", 
            "othersalons"
        ], 
        "id": "absolute-salon-waikoloa", 
        "coord": {
            "latitude": 19.90572, 
            "longitude": -155.75795
        }
    }, 
    {
        "rating": 4.0, 
        "review_count": 1, 
        "name": "Pu'u Hinai", 
        "distance": 13730.868650722494, 
        "categories": [
            "hiking"
        ], 
        "id": "puu-hinai-waikoloa", 
        "coord": {
            "latitude": 19.90572, 
            "longitude": -155.75795
        }
    }, 
    {
        "rating": 4.0, 
        "review_count": 1, 
        "name": "Orchid Cafe", 
        "distance": 13730.868650722494, 
        "categories": [
            "hotels", 
            "restaurants"
        ], 
        "id": "orchid-cafe-waikoloa", 
        "coord": {
            "latitude": 19.90572, 
            "longitude": -155.75795
        }
    }, 
    {
        "rating": 5.0, 
        "review_count": 28, 
        "name": "Endless Summer Private Charters", 
        "distance": 13790.626063196476, 
        "categories": [
            "boatcharters", 
            "tours"
        ], 
        "id": "endless-summer-private-charters-kawaihae-2", 
        "coord": {
            "latitude": 20.0352778, 
            "longitude": -155.8283333
        }
    }, 
    {
        "rating": 4.5, 
        "review_count": 131, 
        "name": "Plantation Grill", 
        "distance": 14052.410733971139, 
        "categories": [
            "seafood", 
            "tradamerican"
        ], 
        "id": "plantation-grill-kawaihae", 
        "coord": {
            "latitude": 20.0381001774321, 
            "longitude": -155.828721779009
        }
    }, 
    {
        "rating": 5.0, 
        "review_count": 20, 
        "name": "Blue Dragon Bodywork", 
        "distance": 14053.933033121462, 
        "categories": [
            "massage", 
            "spas"
        ], 
        "id": "blue-dragon-bodywork-waimea", 
        "coord": {
            "latitude": 20.03721, 
            "longitude": -155.8268
        }
    }, 
    {
        "rating": 4.0, 
        "review_count": 161, 
        "name": "Blue Dragon", 
        "distance": 14053.933033121462, 
        "categories": [
            "seafood", 
            "musicvenues", 
            "newamerican"
        ], 
        "id": "blue-dragon-kawaihae", 
        "coord": {
            "latitude": 20.03721, 
            "longitude": -155.8268
        }
    }, 
    {
        "rating": 5.0, 
        "review_count": 160, 
        "name": "Original Big Island Shave Ice", 
        "distance": 14053.933033121462, 
        "categories": [
            "foodtrucks", 
            "shavedice", 
            "desserts"
        ], 
        "id": "original-big-island-shave-ice-kawaihae", 
        "coord": {
            "latitude": 20.03721, 
            "longitude": -155.8268
        }
    }, 
    {
        "rating": 5.0, 
        "review_count": 4, 
        "name": "Dragon Wagon", 
        "distance": 14067.108494107728, 
        "categories": [
            "foodtrucks", 
            "vegetarian", 
            "hotdogs"
        ], 
        "id": "dragon-wagon-kawaihae", 
        "coord": {
            "latitude": 20.0373364, 
            "longitude": -155.8267852
        }
    }, 
    {
        "rating": 5.0, 
        "review_count": 1, 
        "name": "Island Herbal", 
        "distance": 14068.312940549384, 
        "categories": [
            "cosmetics"
        ], 
        "id": "island-herbal-kamuela", 
        "coord": {
            "latitude": 20.0381393, 
            "longitude": -155.8284607
        }
    }, 
    {
        "rating": 4.5, 
        "review_count": 70, 
        "name": "Kawaihae Kitchen", 
        "distance": 14068.698442820949, 
        "categories": [
            "hawaiian", 
            "sushi", 
            "salad"
        ], 
        "id": "kawaihae-kitchen-kawaihae-2", 
        "coord": {
            "latitude": 20.0388275921817, 
            "longitude": -155.829960107803
        }
    }, 
    {
        "rating": 4.5, 
        "review_count": 60, 
        "name": "Aloha Deli", 
        "distance": 14068.947827139742, 
        "categories": [
            "seafood", 
            "breakfast_brunch", 
            "tradamerican"
        ], 
        "id": "aloha-deli-kawaihae", 
        "coord": {
            "latitude": 20.03815, 
            "longitude": -155.82847
        }
    }, 
    {
        "rating": 5.0, 
        "review_count": 8, 
        "name": "Siren Sportfishing", 
        "distance": 14076.00735466521, 
        "categories": [
            "boating", 
            "fishing", 
            "scuba"
        ], 
        "id": "siren-sportfishing-kawaihae", 
        "coord": {
            "latitude": 20.0389194, 
            "longitude": -155.8300018
        }
    }, 
    {
        "rating": 4.5, 
        "review_count": 109, 
        "name": "Da Fish House Lunch Wagon", 
        "distance": 14076.00735466521, 
        "categories": [
            "seafood", 
            "foodstands"
        ], 
        "id": "da-fish-house-lunch-wagon-kawaihae", 
        "coord": {
            "latitude": 20.0389194, 
            "longitude": -155.8300018
        }
    }, 
    {
        "rating": 4.5, 
        "review_count": 2, 
        "name": "The Harbor Gallery", 
        "distance": 14076.148112981533, 
        "categories": [
            "furniture", 
            "galleries"
        ], 
        "id": "the-harbor-gallery-kamuela", 
        "coord": {
            "latitude": 20.03892, 
            "longitude": -155.83
        }
    }, 
    {
        "rating": 4.0, 
        "review_count": 1, 
        "name": "Mr. K's Takeout", 
        "distance": 14076.148112981533, 
        "categories": [
            "convenience", 
            "asianfusion"
        ], 
        "id": "mr-ks-takeout-kamuela", 
        "coord": {
            "latitude": 20.03892, 
            "longitude": -155.83
        }
    }, 
    {
        "rating": 5.0, 
        "review_count": 69, 
        "name": "Kohala Divers", 
        "distance": 14083.811439087489, 
        "categories": [
            "scuba"
        ], 
        "id": "kohala-divers-kamuela", 
        "coord": {
            "latitude": 20.0390795749563, 
            "longitude": -155.830185413361
        }
    }, 
    {
        "rating": 4.0, 
        "review_count": 213, 
        "name": "Seafood Bar & Grill", 
        "distance": 14098.747229932935, 
        "categories": [
            "seafood", 
            "bars"
        ], 
        "id": "seafood-bar-and-grill-kawaihae-2", 
        "coord": {
            "latitude": 20.038465, 
            "longitude": -155.828503
        }
    }, 
    {
        "rating": 4.5, 
        "review_count": 363, 
        "name": "Kohala Burger & Taco", 
        "distance": 14103.691681340826, 
        "categories": [
            "burgers", 
            "mexican", 
            "seafood"
        ], 
        "id": "kohala-burger-and-taco-kawaihae", 
        "coord": {
            "latitude": 20.0389989405124, 
            "longitude": -155.829563140869
        }
    }, 
    {
        "rating": 5.0, 
        "review_count": 1, 
        "name": "Angela Zink", 
        "distance": 14113.83480483604, 
        "categories": [
            "professional", 
            "food", 
            "personalchefs", 
            "catering"
        ], 
        "id": "angela-zink-big-island-2", 
        "coord": {
            "latitude": 19.9500809, 
            "longitude": -155.7556763
        }
    }, 
    {
        "rating": 4.0, 
        "review_count": 1, 
        "name": "Kawaihae Shopping Center", 
        "distance": 14115.523480152491, 
        "categories": [
            "shoppingcenters"
        ], 
        "id": "kawaihae-shopping-center-waimea", 
        "coord": {
            "latitude": 20.0392283, 
            "longitude": -155.8298096
        }
    }, 
    {
        "rating": 4.5, 
        "review_count": 31, 
        "name": "Hale I'A Da Fish House", 
        "distance": 14160.31834112108, 
        "categories": [
            "seafoodmarkets"
        ], 
        "id": "hale-ia-da-fish-house-kamuela", 
        "coord": {
            "latitude": 20.0396137771008, 
            "longitude": -155.82967042923
        }
    }, 
    {
        "rating": 4.5, 
        "review_count": 106, 
        "name": "Anuenue Shave Ice", 
        "distance": 14192.409140655316, 
        "categories": [
            "icecream", 
            "shavedice"
        ], 
        "id": "anuenue-shave-ice-kamuela", 
        "coord": {
            "latitude": 20.040128, 
            "longitude": -155.830105
        }
    }, 
    {
        "rating": 5.0, 
        "review_count": 10, 
        "name": "Kohala Sail & Sea", 
        "distance": 14309.365331104109, 
        "categories": [
            "boatcharters", 
            "travelservices", 
            "tours"
        ], 
        "id": "kohala-sail-and-sea-kawaihae", 
        "coord": {
            "latitude": 20.0426102, 
            "longitude": -155.8332062
        }
    }, 
    {
        "rating": 4.0, 
        "review_count": 352, 
        "name": "Cafe Pesto", 
        "distance": 14327.381508207067, 
        "categories": [
            "pizza"
        ], 
        "id": "cafe-pesto-kawaihae", 
        "coord": {
            "latitude": 20.0428886, 
            "longitude": -155.8334533
        }
    }, 
    {
        "rating": 4.0, 
        "review_count": 22, 
        "name": "Snorkel Bob's Mauna Lani", 
        "distance": 14343.048752978008, 
        "categories": [
            "diving", 
            "tours", 
            "snorkeling"
        ], 
        "id": "snorkel-bobs-mauna-lani-kamuela", 
        "coord": {
            "latitude": 19.974244, 
            "longitude": -155.761338
        }
    }, 
    {
        "rating": 5.0, 
        "review_count": 4, 
        "name": "Ann Ferguson Photography", 
        "distance": 14343.048752978008, 
        "categories": [
            "eventphotography", 
            "sessionphotography"
        ], 
        "id": "ann-ferguson-photography-kailua-kona", 
        "coord": {
            "latitude": 19.974244, 
            "longitude": -155.761338
        }
    }, 
    {
        "rating": 4.5, 
        "review_count": 7, 
        "name": "Mauna Kea Beach Resort Beach Bar", 
        "distance": 14343.048752978008, 
        "categories": [
            "lounges"
        ], 
        "id": "mauna-kea-beach-resort-beach-bar-marquette", 
        "coord": {
            "latitude": 19.974244, 
            "longitude": -155.761338
        }
    }, 
    {
        "rating": 5.0, 
        "review_count": 8, 
        "name": "CrossFit Kawaihae", 
        "distance": 14530.446938190858, 
        "categories": [
            "gyms"
        ], 
        "id": "crossfit-kawaihae-kamuela", 
        "coord": {
            "latitude": 20.0453892, 
            "longitude": -155.8347321
        }
    }, 
    {
        "rating": 5.0, 
        "review_count": 1, 
        "name": "Ocean Sports", 
        "distance": 14758.559143812388, 
        "categories": [
            "boating", 
            "scuba", 
            "boatcharters"
        ], 
        "id": "ocean-sports-waimea-2", 
        "coord": {
            "latitude": 20.0487271, 
            "longitude": -155.8377353
        }
    }, 
    {
        "rating": 4.5, 
        "review_count": 115, 
        "name": "Hamakua Macadamia Nut Company", 
        "distance": 14898.367830405694, 
        "categories": [
            "gourmet", 
            "souvenirs"
        ], 
        "id": "hamakua-macadamia-nut-company-kawaihae", 
        "coord": {
            "latitude": 20.04938, 
            "longitude": -155.83581
        }
    }, 
    {
        "rating": 4.5, 
        "review_count": 189, 
        "name": "Four Seasons Resort Hualalai", 
        "distance": 15227.486923735645, 
        "categories": [
            "hotels"
        ], 
        "id": "four-seasons-resort-hualalai-kailua-kona-4", 
        "coord": {
            "latitude": 19.828402, 
            "longitude": -155.992153
        }
    }, 
    {
        "rating": 4.0, 
        "review_count": 110, 
        "name": "'ULU Ocean Grill + Sushi Lounge", 
        "distance": 15230.583354523149, 
        "categories": [
            "sushi", 
            "seafood", 
            "hawaiian"
        ], 
        "id": "ulu-ocean-grill-sushi-lounge-kailua-kona", 
        "coord": {
            "latitude": 19.8277801, 
            "longitude": -155.9915542
        }
    }, 
    {
        "rating": 4.0, 
        "review_count": 42, 
        "name": "The Hualalai Grille", 
        "distance": 15239.533220243859, 
        "categories": [
            "steak"
        ], 
        "id": "the-hualalai-grille-kailua-kona", 
        "coord": {
            "latitude": 19.828079, 
            "longitude": -155.991982
        }
    }, 
    {
        "rating": 5.0, 
        "review_count": 6, 
        "name": "Hualalai Golf Club", 
        "distance": 15251.869151123221, 
        "categories": [
            "golf"
        ], 
        "id": "hualalai-golf-club-kailua-kona", 
        "coord": {
            "latitude": 19.8274689, 
            "longitude": -155.9915161
        }
    }, 
    {
        "rating": 4.5, 
        "review_count": 24, 
        "name": "Residents' Beach House", 
        "distance": 15299.582254630497, 
        "categories": [
            "tradamerican"
        ], 
        "id": "residents-beach-house-kailua-kona", 
        "coord": {
            "latitude": 19.827295, 
            "longitude": -155.991974
        }
    }, 
    {
        "rating": 5.0, 
        "review_count": 4, 
        "name": "Hualalai Trading Company", 
        "distance": 15301.162420927818, 
        "categories": [
            "giftshops"
        ], 
        "id": "hualalai-trading-company-kailua-kona", 
        "coord": {
            "latitude": 19.826788, 
            "longitude": -155.991467
        }
    }, 
    {
        "rating": 4.5, 
        "review_count": 144, 
        "name": "Beach Tree Bar and Grill", 
        "distance": 15318.546767602436, 
        "categories": [
            "seafood", 
            "newamerican", 
            "italian", 
            "bars", 
            "bbq"
        ], 
        "id": "beach-tree-bar-and-grill-kailua-kona", 
        "coord": {
            "latitude": 19.828039, 
            "longitude": -155.992991
        }
    }, 
    {
        "rating": 3.5, 
        "review_count": 6, 
        "name": "Spa at Four Seasons Resort Hualalai at Historic Ka'upulehu", 
        "distance": 15323.101071837531, 
        "categories": [
            "spas"
        ], 
        "id": "spa-at-four-seasons-resort-hualalai-at-historic-kaupulehu-kailua-kona", 
        "coord": {
            "latitude": 19.8272215634665, 
            "longitude": -155.992212295532
        }
    }, 
    {
        "rating": 5.0, 
        "review_count": 17, 
        "name": "Kuki'o Beach", 
        "distance": 16104.073070308545, 
        "categories": [
            "beaches"
        ], 
        "id": "kukio-beach-hawaii", 
        "coord": {
            "latitude": 19.8214584543442, 
            "longitude": -155.996675491333
        }
    }, 
    {
        "rating": 5.0, 
        "review_count": 2, 
        "name": "In Touch Massage Therapy", 
        "distance": 16338.281027493089, 
        "categories": [
            "massage"
        ], 
        "id": "in-touch-massage-therapy-kamuela-2", 
        "coord": {
            "latitude": 20.0224495, 
            "longitude": -155.7713165
        }
    }, 
    {
        "rating": 5.0, 
        "review_count": 4, 
        "name": "Kikau Beach", 
        "distance": 16675.87754195745, 
        "categories": [
            "beaches"
        ], 
        "id": "kikau-beach-kailua-kona", 
        "coord": {
            "latitude": 19.8114199, 
            "longitude": -155.99339
        }
    }, 
    {
        "rating": 5.0, 
        "review_count": 4, 
        "name": "Kikaua Point Park", 
        "distance": 16779.750454949135, 
        "categories": [
            "parks"
        ], 
        "id": "kikaua-point-park-h\u014dlualoa", 
        "coord": {
            "latitude": 19.8170298212991, 
            "longitude": -156.001117195948
        }
    }, 
    {
        "rating": 5.0, 
        "review_count": 2, 
        "name": "Kikua Beach", 
        "distance": 16858.396576185132, 
        "categories": [
            "beaches"
        ], 
        "id": "kikua-beach-kailua-kona", 
        "coord": {
            "latitude": 19.8154419692193, 
            "longitude": -156.000492155463
        }
    }, 
    {
        "rating": 3.0, 
        "review_count": 2, 
        "name": "Pua Mau Place", 
        "distance": 17095.06062062378, 
        "categories": [
            "gardens"
        ], 
        "id": "pua-mau-place-kamuela", 
        "coord": {
            "latitude": 20.07294, 
            "longitude": -155.84435
        }
    }, 
    {
        "rating": 5.0, 
        "review_count": 1, 
        "name": "PCH Rock", 
        "distance": 17684.64608915705, 
        "categories": [
            "beaches"
        ], 
        "id": "pch-rock-kailua-kona", 
        "coord": {
            "latitude": 19.8115586155753, 
            "longitude": -156.007549166679
        }
    }, 
    {
        "rating": 5.0, 
        "review_count": 10, 
        "name": "Manini'owali Beach", 
        "distance": 17713.174491257185, 
        "categories": [
            "beaches"
        ], 
        "id": "maniniowali-beach-kailua-kona", 
        "coord": {
            "latitude": 19.8096180579667, 
            "longitude": -156.005869081388
        }
    }, 
    {
        "rating": 3.5, 
        "review_count": 8, 
        "name": "Makalei Golf Club", 
        "distance": 17800.751092300543, 
        "categories": [
            "golf"
        ], 
        "id": "makalei-golf-club-kailua-kona", 
        "coord": {
            "latitude": 19.8089738222758, 
            "longitude": -156.006368380917
        }
    },