[
    {
        "rating": 3.5, 
        "coord": {
            "latitude": 19.923861, 
            "longitude": -155.887427
        }, 
        "review_count": 680, 
        "name": "Hilton Waikoloa Village", 
        "distance": 30.99788455340525, 
        "categories": [
            "resorts"
        ]
    }, 
    {
        "rating": 4.0, 
        "coord": {
            "latitude": 19.9241128, 
            "longitude": -155.8861897
        }, 
        "review_count": 22, 
        "name": "The Bay Club at Waikoloa Beach Resort", 
        "distance": 153.29353731435143, 
        "categories": [
            "hotels"
        ]
    }, 
    {
        "rating": 3.5, 
        "coord": {
            "latitude": 19.92555, 
            "longitude": -155.88747
        }, 
        "review_count": 13, 
        "name": "Orchid Marketplace", 
        "distance": 167.91461372022653, 
        "categories": [
            "pizza", 
            "icecream"
        ]
    }, 
    {
        "rating": 3.5, 
        "coord": {
            "latitude": 19.92555, 
            "longitude": -155.88747
        }, 
        "review_count": 4, 
        "name": "Lagoon Spoon", 
        "distance": 167.91461372022653, 
        "categories": [
            "bakeries"
        ]
    }, 
    {
        "rating": 3.0, 
        "coord": {
            "latitude": 19.92555, 
            "longitude": -155.88747
        }, 
        "review_count": 1, 
        "name": "Waikoloa Coffee", 
        "distance": 167.91461372022653, 
        "categories": [
            "coffee"
        ]
    }, 
    {
        "rating": 3.5, 
        "coord": {
            "latitude": 19.9255505, 
            "longitude": -155.8874664
        }, 
        "review_count": 7, 
        "name": "Shaka cones", 
        "distance": 168.01278247189293, 
        "categories": [
            "icecream"
        ]
    }, 
    {
        "rating": 5.0, 
        "coord": {
            "latitude": 19.924652, 
            "longitude": -155.886151
        }, 
        "review_count": 1, 
        "name": "Alamo Rent A Car", 
        "distance": 171.00119963522397, 
        "categories": [
            "carrental"
        ]
    }, 
    {
        "rating": 5.0, 
        "coord": {
            "latitude": 19.924652, 
            "longitude": -155.886151
        }, 
        "review_count": 1, 
        "name": "National Car Rental", 
        "distance": 171.00119963522397, 
        "categories": [
            "carrental"
        ]
    }, 
    {
        "rating": 3.5, 
        "coord": {
            "latitude": 19.9253906148369, 
            "longitude": -155.8896825979
        }, 
        "review_count": 55, 
        "name": "Dolphin Quest", 
        "distance": 259.71866606392126, 
        "categories": [
            "tours"
        ]
    }, 
    {
        "rating": 3.5, 
        "coord": {
            "latitude": 19.924447826155, 
            "longitude": -155.890259519219
        }, 
        "review_count": 207, 
        "name": "Kamuela Provision Company", 
        "distance": 276.65359101374486, 
        "categories": [
            "wine_bars", 
            "seafood", 
            "steak"
        ]
    }, 
    {
        "rating": 4.0, 
        "coord": {
            "latitude": 19.9209035, 
            "longitude": -155.8864217
        }, 
        "review_count": 247, 
        "name": "Tropics Ale House", 
        "distance": 370.6551174678883, 
        "categories": [
            "bars", 
            "pizza"
        ]
    }, 
    {
        "rating": 4.5, 
        "coord": {
            "latitude": 19.92545, 
            "longitude": -155.88433
        }, 
        "review_count": 4, 
        "name": "The Walking Company", 
        "distance": 381.087454317232, 
        "categories": [
            "shoes"
        ]
    }, 
    {
        "rating": 4.0, 
        "coord": {
            "latitude": 19.92545, 
            "longitude": -155.88433
        }, 
        "review_count": 1, 
        "name": "Sunglass Hut", 
        "distance": 381.087454317232, 
        "categories": [
            "opticians"
        ]
    }, 
    {
        "rating": 4.0, 
        "coord": {
            "latitude": 19.92545, 
            "longitude": -155.88433
        }, 
        "review_count": 2, 
        "name": "Kohala Bay Collections", 
        "distance": 381.087454317232, 
        "categories": [
            "fashion"
        ]
    }, 
    {
        "rating": 4.0, 
        "coord": {
            "latitude": 19.92545, 
            "longitude": -155.88433
        }, 
        "review_count": 38, 
        "name": "Marble Slab Creamery", 
        "distance": 381.087454317232, 
        "categories": [
            "icecream"
        ]
    }, 
    {
        "rating": 4.0, 
        "coord": {
            "latitude": 19.92545, 
            "longitude": -155.88433
        }, 
        "review_count": 11, 
        "name": "Quiksilver", 
        "distance": 381.087454317232, 
        "categories": [
            "sportswear", 
            "surfing", 
            "swimwear"
        ]
    }, 
    {
        "rating": 4.5, 
        "coord": {
            "latitude": 19.92545, 
            "longitude": -155.88433
        }, 
        "review_count": 53, 
        "name": "Blue Wilderness Dive Adventures", 
        "distance": 381.087454317232, 
        "categories": [
            "diving"
        ]
    }, 
    {
        "rating": 4.0, 
        "coord": {
            "latitude": 19.92545, 
            "longitude": -155.88433
        }, 
        "review_count": 2, 
        "name": "Dolphin Galleries", 
        "distance": 381.087454317232, 
        "categories": [
            "galleries", 
            "jewelry"
        ]
    }, 
    {
        "rating": 4.5, 
        "coord": {
            "latitude": 19.92545, 
            "longitude": -155.88433
        }, 
        "review_count": 6, 
        "name": "Walking In Paradise", 
        "distance": 381.087454317232, 
        "categories": [
            "shoes"
        ]
    }, 
    {
        "rating": 4.5, 
        "coord": {
            "latitude": 19.92545, 
            "longitude": -155.88433
        }, 
        "review_count": 5, 
        "name": "Tiffany & Co", 
        "distance": 381.087454317232, 
        "categories": [
            "jewelry"
        ]
    }, 
    {
        "rating": 4.5, 
        "coord": {
            "latitude": 19.92545, 
            "longitude": -155.88433
        }, 
        "review_count": 6, 
        "name": "Tommy Bahama", 
        "distance": 381.087454317232, 
        "categories": [
            "menscloth", 
            "womenscloth", 
            "swimwear"
        ]
    }, 
    {
        "rating": 4.5, 
        "coord": {
            "latitude": 19.92545, 
            "longitude": -155.88433
        }, 
        "review_count": 4, 
        "name": "Genesis Galleries Hawaii", 
        "distance": 381.087454317232, 
        "categories": [
            "galleries"
        ]
    }, 
    {
        "rating": 3.5, 
        "coord": {
            "latitude": 19.92545, 
            "longitude": -155.88433
        }, 
        "review_count": 3, 
        "name": "Honolua Surf Co", 
        "distance": 381.087454317232, 
        "categories": [
            "menscloth", 
            "womenscloth", 
            "swimwear"
        ]
    }, 
    {
        "rating": 5.0, 
        "coord": {
            "latitude": 19.92545, 
            "longitude": -155.88433
        }, 
        "review_count": 1, 
        "name": "Kohala Coast Fine Art", 
        "distance": 381.087454317232, 
        "categories": [
            "galleries"
        ]
    }, 
    {
        "rating": 4.5, 
        "coord": {
            "latitude": 19.9254494, 
            "longitude": -155.8843231
        }, 
        "review_count": 8, 
        "name": "Sasha Hawaii", 
        "distance": 381.719783437223, 
        "categories": [
            "womenscloth", 
            "childcloth", 
            "swimwear"
        ]
    }, 
    {
        "rating": 4.5, 
        "coord": {
            "latitude": 19.9254494, 
            "longitude": -155.8843231
        }, 
        "review_count": 7, 
        "name": "Crazy Shirts", 
        "distance": 381.719783437223, 
        "categories": [
            "menscloth"
        ]
    }, 
    {
        "rating": 5.0, 
        "coord": {
            "latitude": 19.9254494, 
            "longitude": -155.8843231
        }, 
        "review_count": 1, 
        "name": "Rip Curl Surf Center", 
        "distance": 381.719783437223, 
        "categories": [
            "sportswear", 
            "surfshop"
        ]
    }, 
    {
        "rating": 5.0, 
        "coord": {
            "latitude": 19.92088, 
            "longitude": -155.88565
        }, 
        "review_count": 3, 
        "name": "Waikoloa Beach Resort", 
        "distance": 408.0966338519307, 
        "categories": [
            "golf", 
            "apartments"
        ]
    }, 
    {
        "rating": 4.5, 
        "coord": {
            "latitude": 19.9225998, 
            "longitude": -155.8840637
        }, 
        "review_count": 6, 
        "name": "Aston Shores at Waikoloa", 
        "distance": 408.2474095211171, 
        "categories": [
            "hotels"
        ]
    }, 
    {
        "rating": 5.0, 
        "coord": {
            "latitude": 19.9226033204119, 
            "longitude": -155.883915263766
        }, 
        "review_count": 3, 
        "name": "Big Island Vacation Services", 
        "distance": 422.4454088941414, 
        "categories": [
            "tours", 
            "travelservices"
        ]
    }, 
    {
        "rating": 3.0, 
        "coord": {
            "latitude": 19.9196167, 
            "longitude": -155.8872657
        }, 
        "review_count": 2, 
        "name": "Hawiian Ukulele and Guitar", 
        "distance": 491.6724137649859, 
        "categories": [
            "musicalinstrumentsandteachers", 
            "guitarstores"
        ]
    }, 
    {
        "rating": 4.5, 
        "coord": {
            "latitude": 19.9190721046165, 
            "longitude": -155.889541058836
        }, 
        "review_count": 2, 
        "name": "Buddha Point", 
        "distance": 584.7580129706208, 
        "categories": [
            "localflavor"
        ]
    }, 
    {
        "rating": 4.0, 
        "coord": {
            "latitude": 19.9255557, 
            "longitude": -155.8815658
        }, 
        "review_count": 32, 
        "name": "Halii Kai Resort", 
        "distance": 658.8424473520811, 
        "categories": [
            "resorts"
        ]
    }, 
    {
        "rating": 3.5, 
        "coord": {
            "latitude": 19.9173148361269, 
            "longitude": -155.884580612183
        }, 
        "review_count": 301, 
        "name": "Waikoloa Beach Marriott Resort & Spa", 
        "distance": 811.2832390291841, 
        "categories": [
            "hotels", 
            "bars"
        ]
    }, 
    {
        "rating": 4.0, 
        "coord": {
            "latitude": 19.916652046168, 
            "longitude": -155.885993634753
        }, 
        "review_count": 25, 
        "name": "Waikoloa Beach Marriott Sunset Luau", 
        "distance": 836.4230464123946, 
        "categories": [
            "theater"
        ]
    }, 
    {
        "rating": 4.0, 
        "coord": {
            "latitude": 19.91663, 
            "longitude": -155.88475
        }, 
        "review_count": 4, 
        "name": "Clipper Lounge", 
        "distance": 875.084867774121, 
        "categories": [
            "lounges", 
            "hawaiian"
        ]
    }, 
    {
        "rating": 5.0, 
        "coord": {
            "latitude": 19.9166298, 
            "longitude": -155.8847504
        }, 
        "review_count": 1, 
        "name": "Lamonts Gift & Sundry Shops", 
        "distance": 875.0910912152198, 
        "categories": [
            "flowers"
        ]
    }, 
    {
        "rating": 4.5, 
        "coord": {
            "latitude": 19.9161118165888, 
            "longitude": -155.886935582031
        }, 
        "review_count": 77, 
        "name": "Ocean Sports", 
        "distance": 881.2063167790677, 
        "categories": [
            "boating", 
            "boatcharters", 
            "diving"
        ]
    }, 
    {
        "rating": 3.5, 
        "coord": {
            "latitude": 19.9160573678576, 
            "longitude": -155.887378107162
        }, 
        "review_count": 2, 
        "name": "Abay Caf\u00e9", 
        "distance": 884.5007514294701, 
        "categories": [
            "shavedice"
        ]
    }, 
    {
        "rating": 4.0, 
        "coord": {
            "latitude": 19.916312, 
            "longitude": -155.8848924
        }, 
        "review_count": 17, 
        "name": "Blinnk Photography of Kona", 
        "distance": 903.3020266660615, 
        "categories": [
            "eventphotography", 
            "sessionphotography"
        ]
    }, 
    {
        "rating": 4.0, 
        "coord": {
            "latitude": 19.9165270952378, 
            "longitude": -155.883186869323
        }, 
        "review_count": 29, 
        "name": "A Bay's Island Grill", 
        "distance": 954.3778137872797, 
        "categories": [
            "sportsbars", 
            "hawaiian"
        ]
    }, 
    {
        "rating": 4.0, 
        "coord": {
            "latitude": 19.9164675180362, 
            "longitude": -155.883078575134
        }, 
        "review_count": 624, 
        "name": "Roy's Waikoloa Bar & Grill", 
        "distance": 965.7047525016037, 
        "categories": [
            "hawaiian", 
            "seafood", 
            "asianfusion"
        ]
    }, 
    {
        "rating": 4.5, 
        "coord": {
            "latitude": 19.9160236829387, 
            "longitude": -155.883293151855
        }, 
        "review_count": 15, 
        "name": "Outrigger Fairway Villas", 
        "distance": 998.1986269775683, 
        "categories": [
            "hotels"
        ]
    }, 
    {
        "rating": 3.5, 
        "coord": {
            "latitude": 19.91651, 
            "longitude": -155.88222
        }, 
        "review_count": 185, 
        "name": "Island Fish & Chips", 
        "distance": 1009.3998130872263, 
        "categories": [
            "seafood"
        ]
    }, 
    {
        "rating": 3.5, 
        "coord": {
            "latitude": 19.91651, 
            "longitude": -155.88222
        }, 
        "review_count": 20, 
        "name": "Whalers General Store", 
        "distance": 1009.3998130872263, 
        "categories": [
            "fashion"
        ]
    }, 
    {
        "rating": 5.0, 
        "coord": {
            "latitude": 19.91651, 
            "longitude": -155.88222
        }, 
        "review_count": 2, 
        "name": "Tori Richard", 
        "distance": 1009.3998130872263, 
        "categories": [
            "menscloth", 
            "womenscloth", 
            "swimwear"
        ]
    }, 
    {
        "rating": 4.0, 
        "coord": {
            "latitude": 19.91651, 
            "longitude": -155.88222
        }, 
        "review_count": 1, 
        "name": "Under the Koa Tree", 
        "distance": 1009.3998130872263, 
        "categories": [
            "flowers"
        ]
    }, 
    {
        "rating": 4.0, 
        "coord": {
            "latitude": 19.91651, 
            "longitude": -155.88222
        }, 
        "review_count": 20, 
        "name": "King's Trail - Malama Petroglyph Trail", 
        "distance": 1009.3998130872263, 
        "categories": [
            "hiking"
        ]
    }, 
    {
        "rating": 4.5, 
        "coord": {
            "latitude": 19.91651, 
            "longitude": -155.88222
        }, 
        "review_count": 2, 
        "name": "Mary Jane's", 
        "distance": 1009.3998130872263, 
        "categories": [
            "jewelry", 
            "accessories"
        ]
    }, 
    {
        "rating": 4.5, 
        "coord": {
            "latitude": 19.91651, 
            "longitude": -155.88222
        }, 
        "review_count": 6, 
        "name": "Na Hoku", 
        "distance": 1009.3998130872263, 
        "categories": [
            "jewelry"
        ]
    }, 
    {
        "rating": 4.0, 
        "coord": {
            "latitude": 19.91651, 
            "longitude": -155.88222
        }, 
        "review_count": 2, 
        "name": "Noa Noa", 
        "distance": 1009.3998130872263, 
        "categories": [
            "fashion"
        ]
    }, 
    {
        "rating": 3.0, 
        "coord": {
            "latitude": 19.91651, 
            "longitude": -155.88222
        }, 
        "review_count": 2, 
        "name": "Kings' Shops Farmers Market", 
        "distance": 1009.3998130872263, 
        "categories": [
            "farmersmarket"
        ]
    }, 
    {
        "rating": 4.0, 
        "coord": {
            "latitude": 19.9165096, 
            "longitude": -155.8822174
        }, 
        "review_count": 21, 
        "name": "Big Island Motorcycle Co", 
        "distance": 1009.5897939105419, 
        "categories": [
            "bikerentals", 
            "motorcycle_rental"
        ]
    }, 
    {
        "rating": 5.0, 
        "coord": {
            "latitude": 19.9165096, 
            "longitude": -155.8822174
        }, 
        "review_count": 1, 
        "name": "Jourabchi Inc", 
        "distance": 1009.5897939105419, 
        "categories": [
            "womenscloth"
        ]
    }, 
    {
        "rating": 5.0, 
        "coord": {
            "latitude": 19.9164211, 
            "longitude": -155.8821969
        }, 
        "review_count": 1, 
        "name": "Hawaii's Gift Basket Boutique", 
        "distance": 1018.8994628356198, 
        "categories": [
            "giftshops"
        ]
    }, 
    {
        "rating": 4.0, 
        "coord": {
            "latitude": 19.92551, 
            "longitude": -155.87797
        }, 
        "review_count": 1, 
        "name": "ResortQuest Waikoloa Colony Villas", 
        "distance": 1026.6003561705058, 
        "categories": [
            "hotels", 
            "guesthouses"
        ]
    }, 
    {
        "rating": 4.0, 
        "coord": {
            "latitude": 19.922555, 
            "longitude": -155.877794
        }, 
        "review_count": 49, 
        "name": "Kohala Suites by Hilton Grand Vacations", 
        "distance": 1045.1723633243955, 
        "categories": [
            "hotels"
        ]
    }, 
    {
        "rating": 3.0, 
        "coord": {
            "latitude": 19.924174, 
            "longitude": -155.877464
        }, 
        "review_count": 1, 
        "name": "Kona Surf N Sandals", 
        "distance": 1066.7530822937888, 
        "categories": [
            "surfshop"
        ]
    }, 
    {
        "rating": 3.5, 
        "coord": {
            "latitude": 19.9155102, 
            "longitude": -155.8827209
        }, 
        "review_count": 126, 
        "name": "Ippy's Hawaiian Barbeque", 
        "distance": 1076.4931901997768, 
        "categories": [
            "bbq", 
            "hawaiian"
        ]
    }, 
    {
        "rating": 4.5, 
        "coord": {
            "latitude": 19.9155102, 
            "longitude": -155.8827209
        }, 
        "review_count": 86, 
        "name": "Hearts & Stars Salon & Day Spa", 
        "distance": 1076.4931901997768, 
        "categories": [
            "hair", 
            "spas", 
            "othersalons"
        ]
    }, 
    {
        "rating": 4.0, 
        "coord": {
            "latitude": 19.9155104, 
            "longitude": -155.8827164
        }, 
        "review_count": 80, 
        "name": "Daylight Mind Coffee", 
        "distance": 1076.699808951037, 
        "categories": [
            "coffee", 
            "breakfast_brunch"
        ]
    }, 
    {
        "rating": 3.5, 
        "coord": {
            "latitude": 19.9155104, 
            "longitude": -155.8827164
        }, 
        "review_count": 19, 
        "name": "Persimmon", 
        "distance": 1076.699808951037, 
        "categories": [
            "womenscloth", 
            "accessories"
        ]
    }, 
    {
        "rating": 5.0, 
        "coord": {
            "latitude": 19.9155104, 
            "longitude": -155.8827164
        }, 
        "review_count": 1, 
        "name": "SoHa Living", 
        "distance": 1076.699808951037, 
        "categories": [
            "homedecor", 
            "giftshops", 
            "jewelry"
        ]
    }, 
    {
        "rating": 4.0, 
        "coord": {
            "latitude": 19.9155104, 
            "longitude": -155.8827164
        }, 
        "review_count": 1, 
        "name": "Starscape Gallery", 
        "distance": 1076.699808951037, 
        "categories": [
            "galleries"
        ]
    }, 
    {
        "rating": 3.5, 
        "coord": {
            "latitude": 19.9155104, 
            "longitude": -155.8827164
        }, 
        "review_count": 5, 
        "name": "Shiono Waikoloa", 
        "distance": 1076.699808951037, 
        "categories": [
            "sushi"
        ]
    }, 
    {
        "rating": 3.5, 
        "coord": {
            "latitude": 19.9155104, 
            "longitude": -155.8827164
        }, 
        "review_count": 43, 
        "name": "Queens MarketPlace", 
        "distance": 1076.699808951037, 
        "categories": [
            "shoppingcenters"
        ]
    }, 
    {
        "rating": 5.0, 
        "coord": {
            "latitude": 19.913532, 
            "longitude": -155.888059
        }, 
        "review_count": 5, 
        "name": "Calley O'Neill and The Full Body Elixir", 
        "distance": 1164.382159427311, 
        "categories": [
            "yoga"
        ]
    }, 
    {
        "rating": 4.0, 
        "coord": {
            "latitude": 19.913284045398, 
            "longitude": -155.887937061489
        }, 
        "review_count": 866, 
        "name": "Lava Lava Beach Club - Waikoloa", 
        "distance": 1191.4253998689744, 
        "categories": [
            "venues", 
            "hawaiian", 
            "newamerican"
        ]
    }, 
    {
        "rating": 4.0, 
        "coord": {
            "latitude": 19.9141215110683, 
            "longitude": -155.881106761541
        }, 
        "review_count": 20, 
        "name": "Aloha Wine Bar", 
        "distance": 1294.5946697386821, 
        "categories": [
            "wine_bars"
        ]
    }, 
    {
        "rating": 4.5, 
        "coord": {
            "latitude": 19.9321907, 
            "longitude": -155.8786104
        }, 
        "review_count": 11, 
        "name": "49 Black Sand Beach", 
        "distance": 1307.527041090041, 
        "categories": [
            "beaches"
        ]
    }, 
    {
        "rating": 4.5, 
        "coord": {
            "latitude": 19.915515, 
            "longitude": -155.8787
        }, 
        "review_count": 3, 
        "name": "Waikoloa Beach Villas", 
        "distance": 1330.3254493983304, 
        "categories": [
            "hotels", 
            "guesthouses"
        ]
    }, 
    {
        "rating": 4.0, 
        "coord": {
            "latitude": 19.9137695444482, 
            "longitude": -155.881000404809
        }, 
        "review_count": 238, 
        "name": "Island Gourmet Markets", 
        "distance": 1333.5936475365145, 
        "categories": [
            "grocery", 
            "beer_and_wine", 
            "delis"
        ]
    }, 
    {
        "rating": 3.5, 
        "coord": {
            "latitude": 19.9141813320437, 
            "longitude": -155.880118482334
        }, 
        "review_count": 50, 
        "name": "Starbucks", 
        "distance": 1346.8469606510253, 
        "categories": [
            "coffee"
        ]
    }, 
    {
        "rating": 5.0, 
        "coord": {
            "latitude": 19.9138389287389, 
            "longitude": -155.880548179467
        }, 
        "review_count": 1, 
        "name": "Malibu Shirts", 
        "distance": 1352.4977963386937, 
        "categories": [
            "accessories", 
            "menscloth", 
            "womenscloth"
        ]
    }, 
    {
        "rating": 5.0, 
        "coord": {
            "latitude": 19.913784, 
            "longitude": -155.880228
        }, 
        "review_count": 1, 
        "name": "Lids", 
        "distance": 1376.2326418202395, 
        "categories": [
            "accessories", 
            "sportswear"
        ]
    }, 
    {
        "rating": 4.0, 
        "coord": {
            "latitude": 19.9214116875637, 
            "longitude": -155.874779662842
        }, 
        "review_count": 117, 
        "name": "Mai Grille By Allen Hess", 
        "distance": 1378.8297135719556, 
        "categories": [
            "newamerican", 
            "breakfast_brunch"
        ]
    }, 
    {
        "rating": 5.0, 
        "coord": {
            "latitude": 19.9132014, 
            "longitude": -155.8806327
        }, 
        "review_count": 15, 
        "name": "Kolea at Waikoloa Beach Resort", 
        "distance": 1407.3371188721412, 
        "categories": [
            "hotels"
        ]
    }, 
    {
        "rating": 3.5, 
        "coord": {
            "latitude": 19.9132014, 
            "longitude": -155.8806327
        }, 
        "review_count": 3, 
        "name": "Local Motion", 
        "distance": 1407.3371188721412, 
        "categories": [
            "fashion"
        ]
    }, 
    {
        "rating": 3.5, 
        "coord": {
            "latitude": 19.913342, 
            "longitude": -155.88013
        }, 
        "review_count": 194, 
        "name": "Lemongrass Express", 
        "distance": 1422.5366821117357, 
        "categories": [
            "asianfusion"
        ]
    }, 
    {
        "rating": 3.5, 
        "coord": {
            "latitude": 19.913799725728, 
            "longitude": -155.87931466288
        }, 
        "review_count": 468, 
        "name": "Sansei Seafood & Sushi Bar", 
        "distance": 1431.03825744201, 
        "categories": [
            "japanese", 
            "sushi", 
            "seafood"
        ]
    }, 
    {
        "rating": 4.5, 
        "coord": {
            "latitude": 19.9135200700879, 
            "longitude": -155.879691272271
        }, 
        "review_count": 24, 
        "name": "Bikeworks Beach and Sports", 
        "distance": 1432.3953258214399, 
        "categories": [
            "bikerentals", 
            "bikes", 
            "outdoorgear"
        ]
    }, 
    {
        "rating": 4.0, 
        "coord": {
            "latitude": 19.9142888848616, 
            "longitude": -155.877944946289
        }, 
        "review_count": 26, 
        "name": "Kings' Shops", 
        "distance": 1482.8778280398499, 
        "categories": [
            "shoppingcenters"
        ]
    }, 
    {
        "rating": 5.0, 
        "coord": {
            "latitude": 19.9370859, 
            "longitude": -155.875118
        }, 
        "review_count": 4, 
        "name": "The Islands At Mauna Lani", 
        "distance": 1951.0899850236567, 
        "categories": [
            "hotels"
        ]
    }, 
    {
        "rating": 5.0, 
        "coord": {
            "latitude": 19.9385033, 
            "longitude": -155.8755756
        }, 
        "review_count": 1, 
        "name": "Mauna Lani Point", 
        "distance": 2039.8651494691728, 
        "categories": [
            "hotels"
        ]
    }, 
    {
        "rating": 4.0, 
        "coord": {
            "latitude": 19.926804, 
            "longitude": -155.865824
        }, 
        "review_count": 90, 
        "name": "Kings' Land by Hilton Grand Vacations", 
        "distance": 2305.6596777310688, 
        "categories": [
            "resorts"
        ]
    }, 
    {
        "rating": 4.5, 
        "coord": {
            "latitude": 19.94172, 
            "longitude": -155.87244
        }, 
        "review_count": 155, 
        "name": "Napua at Mauna Lani Beach Club", 
        "distance": 2523.0418735812327, 
        "categories": [
            "hawaiian", 
            "seafood"
        ]
    }, 
    {
        "rating": 4.0, 
        "coord": {
            "latitude": 19.9418602, 
            "longitude": -155.8718414
        }, 
        "review_count": 16, 
        "name": "Aston Waikoloa Colony Villas", 
        "distance": 2574.928629010044, 
        "categories": [
            "hotels"
        ]
    }, 
    {
        "rating": 4.5, 
        "coord": {
            "latitude": 19.942207821557, 
            "longitude": -155.871877670288
        }, 
        "review_count": 22, 
        "name": "Mauna Lani Sea Aventures", 
        "distance": 2602.111811392788, 
        "categories": [
            "boating", 
            "snorkeling", 
            "scuba"
        ]
    }, 
    {
        "rating": 3.5, 
        "coord": {
            "latitude": 19.9371018, 
            "longitude": -155.8665483
        }, 
        "review_count": 26, 
        "name": "Shiono at Mauna Lani", 
        "distance": 2640.340052279825, 
        "categories": [
            "japanese", 
            "sushi"
        ]
    }, 
    {
        "rating": 3.5, 
        "coord": {
            "latitude": 19.9235599, 
            "longitude": -155.8583
        }, 
        "review_count": 3, 
        "name": "Anaeho'omalu Beach", 
        "distance": 3073.541906058502, 
        "categories": [
            "beaches"
        ]
    }, 
    {
        "rating": 5.0, 
        "coord": {
            "latitude": 19.943761, 
            "longitude": -155.866937
        }, 
        "review_count": 3, 
        "name": "Mauna Lani Terrace Condominium", 
        "distance": 3077.004669340093, 
        "categories": [
            "hotels"
        ]
    }, 
    {
        "rating": 5.0, 
        "coord": {
            "latitude": 19.9401875, 
            "longitude": -155.8637238
        }, 
        "review_count": 1, 
        "name": "Palm Villas at Mauna Lani", 
        "distance": 3077.293453795267, 
        "categories": [
            "hotels"
        ]
    }, 
    {
        "rating": 3.5, 
        "coord": {
            "latitude": 19.9457540293961, 
            "longitude": -155.867566368194
        }, 
        "review_count": 12, 
        "name": "Bay Terrace Restaurant", 
        "distance": 3193.4886770013613, 
        "categories": [
            "newamerican"
        ]
    }, 
    {
        "rating": 4.0, 
        "coord": {
            "latitude": 19.946519, 
            "longitude": -155.867059
        }, 
        "review_count": 216, 
        "name": "CanoeHouse", 
        "distance": 3292.2335366799234, 
        "categories": [
            "newamerican", 
            "asianfusion", 
            "hawaiian"
        ]
    }, 
    {
        "rating": 4.0, 
        "coord": {
            "latitude": 19.9466050401678, 
            "longitude": -155.866792201996
        }, 
        "review_count": 28, 
        "name": "Mauna Lani Resort Golf", 
        "distance": 3317.7554308413514, 
        "categories": [
            "golf"
        ]
    }, 
    {
        "rating": 5.0, 
        "coord": {
            "latitude": 19.9436426810229, 
            "longitude": -155.863509201074
        }, 
        "review_count": 11, 
        "name": "Maya Parish Yoga", 
        "distance": 3331.099039121393, 
        "categories": [
            "yoga"
        ]
    }, 
    {
        "rating": 5.0, 
        "coord": {
            "latitude": 19.9455, 
            "longitude": -155.86427
        }, 
        "review_count": 1, 
        "name": "The Beach Club", 
        "distance": 3410.923152198156, 
        "categories": [
            "salad", 
            "soup", 
            "sandwiches"
        ]
    }, 
    {
        "rating": 3.5, 
        "coord": {
            "latitude": 19.9414635, 
            "longitude": -155.8607692
        }, 
        "review_count": 3, 
        "name": "Lamonts Gift & Sundry Shops", 
        "distance": 3411.7433402649617, 
        "categories": [
            "flowers"
        ]
    }, 
    {
        "rating": 3.5, 
        "coord": {
            "latitude": 19.9414635, 
            "longitude": -155.8607692
        }, 
        "review_count": 12, 
        "name": "Ocean Grill", 
        "distance": 3411.7433402649617, 
        "categories": [
            "newamerican"
        ]
    }, 
    {
        "rating": 3.5, 
        "coord": {
            "latitude": 19.9414635, 
            "longitude": -155.8607635
        }, 
        "review_count": 16, 
        "name": "Puako Petroglyphs", 
        "distance": 3412.2356179685553, 
        "categories": [
            "parks"
        ]
    }, 
    {
        "rating": 4.5, 
        "coord": {
            "latitude": 19.9487430930397, 
            "longitude": -155.866298675537
        }, 
        "review_count": 182, 
        "name": "Mauna Lani Bay Hotel", 
        "distance": 3531.8760608072107, 
        "categories": [
            "resorts"
        ]
    }, 
    {
        "rating": 5.0, 
        "coord": {
            "latitude": 19.9410046, 
            "longitude": -155.8584785
        }, 
        "review_count": 1, 
        "name": "The Fine Hawaiian Gift Gallery", 
        "distance": 3585.2543436188826, 
        "categories": [
            "souvenirs", 
            "giftshops", 
            "jewelry"
        ]
    }, 
    {
        "rating": 4.0, 
        "coord": {
            "latitude": 19.941778, 
            "longitude": -155.858634
        }, 
        "review_count": 303, 
        "name": "Tommy Bahama Restaurant | Bar | Store - Mauna Lani", 
        "distance": 3617.138132790472, 
        "categories": [
            "newamerican", 
            "seafood", 
            "hawaiian"
        ]
    }, 
    {
        "rating": 3.0, 
        "coord": {
            "latitude": 19.941318, 
            "longitude": -155.858261
        }, 
        "review_count": 1, 
        "name": "Hawaiian Island Creations", 
        "distance": 3622.8629916315, 
        "categories": [
            "sportswear", 
            "surfshop", 
            "swimwear"
        ]
    }, 
    {
        "rating": 4.5, 
        "coord": {
            "latitude": 19.9417636504009, 
            "longitude": -155.858493235742
        }, 
        "review_count": 16, 
        "name": "Kona Kozy's Comedy & Magic Show", 
        "distance": 3628.6650383150095, 
        "categories": [
            "magicians"
        ]
    }, 
    {
        "rating": 4.0, 
        "coord": {
            "latitude": 19.9415336364821, 
            "longitude": -155.858187043789
        }, 
        "review_count": 93, 
        "name": "The Blue Room Brasserie & Bar", 
        "distance": 3642.074342705096, 
        "categories": [
            "french", 
            "brasseries", 
            "hawaiian"
        ]
    }, 
    {
        "rating": 3.5, 
        "coord": {
            "latitude": 19.941078241045, 
            "longitude": -155.857887268066
        }, 
        "review_count": 17, 
        "name": "The Shops at Mauna Lani", 
        "distance": 3642.3414952712837, 
        "categories": [
            "shoppingcenters"
        ]
    }, 
    {
        "rating": 4.0, 
        "coord": {
            "latitude": 19.941192, 
            "longitude": -155.857831
        }, 
        "review_count": 353, 
        "name": "Monstera", 
        "distance": 3653.908854445425, 
        "categories": [
            "japanese"
        ]
    }, 
    {
        "rating": 3.5, 
        "coord": {
            "latitude": 19.9412708, 
            "longitude": -155.8578644
        }, 
        "review_count": 3, 
        "name": "Hulakai Hawaii", 
        "distance": 3655.464687931549, 
        "categories": [
            "sportgoods"
        ]
    }, 
    {
        "rating": 4.0, 
        "coord": {
            "latitude": 19.9412708, 
            "longitude": -155.8578644
        }, 
        "review_count": 6, 
        "name": "The Great 4-D Movie Ride", 
        "distance": 3655.464687931549, 
        "categories": [
            "arts"
        ]
    }, 
    {
        "rating": 4.0, 
        "coord": {
            "latitude": 19.9412708, 
            "longitude": -155.8578644
        }, 
        "review_count": 71, 
        "name": "Kimobean Hawaiian Coffee", 
        "distance": 3655.464687931549, 
        "categories": [
            "coffee"
        ]
    }, 
    {
        "rating": 5.0, 
        "coord": {
            "latitude": 19.94127, 
            "longitude": -155.8578599
        }, 
        "review_count": 1, 
        "name": "Reyn Spooner", 
        "distance": 3655.820412220219, 
        "categories": [
            "menscloth", 
            "childcloth", 
            "swimwear"
        ]
    }, 
    {
        "rating": 4.0, 
        "coord": {
            "latitude": 19.94127, 
            "longitude": -155.8578599
        }, 
        "review_count": 82, 
        "name": "Foodland Farms", 
        "distance": 3655.820412220219, 
        "categories": [
            "grocery"
        ]
    }, 
    {
        "rating": 4.0, 
        "coord": {
            "latitude": 19.94127, 
            "longitude": -155.8578599
        }, 
        "review_count": 142, 
        "name": "Ruth's Chris Steak House", 
        "distance": 3655.820412220219, 
        "categories": [
            "steak"
        ]
    }, 
    {
        "rating": 5.0, 
        "coord": {
            "latitude": 19.94127, 
            "longitude": -155.8578599
        }, 
        "review_count": 5, 
        "name": "Jourabchi Botique", 
        "distance": 3655.820412220219, 
        "categories": [
            "womenscloth", 
            "lingerie", 
            "accessories"
        ]
    }, 
    {
        "rating": 3.0, 
        "coord": {
            "latitude": 19.94127, 
            "longitude": -155.8578599
        }, 
        "review_count": 1, 
        "name": "Island's Edge Art & Design", 
        "distance": 3655.820412220219, 
        "categories": [
            "galleries"
        ]
    }, 
    {
        "rating": 3.0, 
        "coord": {
            "latitude": 19.94127, 
            "longitude": -155.8578599
        }, 
        "review_count": 1, 
        "name": "The Grin", 
        "distance": 3655.820412220219, 
        "categories": [
            "childcloth", 
            "menscloth", 
            "womenscloth"
        ]
    }, 
    {
        "rating": 4.0, 
        "coord": {
            "latitude": 19.94127, 
            "longitude": -155.8578599
        }, 
        "review_count": 2, 
        "name": "Lahaina Galleries", 
        "distance": 3655.820412220219, 
        "categories": [
            "galleries"
        ]
    }, 
    {
        "rating": 5.0, 
        "coord": {
            "latitude": 19.94127, 
            "longitude": -155.8578599
        }, 
        "review_count": 2, 
        "name": "Snorkel Bob's", 
        "distance": 3655.820412220219, 
        "categories": [
            "sportgoods"
        ]
    }, 
    {
        "rating": 4.0, 
        "coord": {
            "latitude": 19.94127, 
            "longitude": -155.8578599
        }, 
        "review_count": 6, 
        "name": "Oasis Lifestyle", 
        "distance": 3655.820412220219, 
        "categories": [
            "accessories", 
            "womenscloth", 
            "giftshops"
        ]
    }, 
    {
        "rating": 3.5, 
        "coord": {
            "latitude": 19.9409559533843, 
            "longitude": -155.857584849
        }, 
        "review_count": 78, 
        "name": "Juice 101", 
        "distance": 3662.5266684446574, 
        "categories": [
            "juicebars"
        ]
    }, 
    {
        "rating": 4.5, 
        "coord": {
            "latitude": 19.9407106, 
            "longitude": -155.8572936
        }, 
        "review_count": 186, 
        "name": "Under the Bodhi Tree", 
        "distance": 3675.055707504478, 
        "categories": [
            "vegan", 
            "vegetarian"
        ]
    }, 
    {
        "rating": 4.5, 
        "coord": {
            "latitude": 19.9411664, 
            "longitude": -155.8571663
        }, 
        "review_count": 12, 
        "name": "Moana Salon & Day Spa", 
        "distance": 3712.095495037924, 
        "categories": [
            "spas", 
            "othersalons", 
            "massage"
        ]
    }, 
    {
        "rating": 5.0, 
        "coord": {
            "latitude": 19.9505231008171, 
            "longitude": -155.861509591341
        }, 
        "review_count": 4, 
        "name": "Kahakai Bar", 
        "distance": 4010.4192375423063, 
        "categories": [
            "bars"
        ]
    }, 
    {
        "rating": 3.5, 
        "coord": {
            "latitude": 19.9512693870576, 
            "longitude": -155.860891342163
        }, 
        "review_count": 26, 
        "name": "Brown's Deli", 
        "distance": 4114.982821962841, 
        "categories": [
            "delis"
        ]
    }, 
    {
        "rating": 4.0, 
        "coord": {
            "latitude": 19.9510629710106, 
            "longitude": -155.860219937477
        }, 
        "review_count": 83, 
        "name": "Norio's Japanese Restaurant & Sushi Bar", 
        "distance": 4146.641606429076, 
        "categories": [
            "sushi", 
            "japanese"
        ]
    }, 
    {
        "rating": 3.5, 
        "coord": {
            "latitude": 19.9512794719826, 
            "longitude": -155.859990119934
        }, 
        "review_count": 17, 
        "name": "Luana Lounge", 
        "distance": 4180.5919250015095, 
        "categories": [
            "lounges"
        ]
    }, 
    {
        "rating": 4.5, 
        "coord": {
            "latitude": 19.9516374864038, 
            "longitude": -155.859990119934
        }, 
        "review_count": 24, 
        "name": "Spa Without Walls", 
        "distance": 4209.26413667715, 
        "categories": [
            "spas"
        ]
    }, 
    {
        "rating": 4.0, 
        "coord": {
            "latitude": 19.951022306193, 
            "longitude": -155.859260559082
        }, 
        "review_count": 189, 
        "name": "Brown's Beach House", 
        "distance": 4213.630349988333, 
        "categories": [
            "hawaiian", 
            "seafood"
        ]
    }, 
    {
        "rating": 4.5, 
        "coord": {
            "latitude": 19.9511077, 
            "longitude": -155.8590139
        }, 
        "review_count": 2, 
        "name": "Ocean Bar", 
        "distance": 4238.5613119502605, 
        "categories": [
            "restaurants"
        ]
    }, 
    {
        "rating": 4.5, 
        "coord": {
            "latitude": 19.950913, 
            "longitude": -155.858191
        }, 
        "review_count": 15, 
        "name": "Pacific Dream Photography", 
        "distance": 4284.938418112173, 
        "categories": [
            "eventphotography", 
            "videographers", 
            "sessionphotography"
        ]
    }, 
    {
        "rating": 4.0, 
        "coord": {
            "latitude": 19.953019, 
            "longitude": -155.859618
        }, 
        "review_count": 282, 
        "name": "Fairmont Orchid", 
        "distance": 4347.730397336995, 
        "categories": [
            "hotels", 
            "resorts"
        ]
    }, 
    {
        "rating": 5.0, 
        "coord": {
            "latitude": 19.9511290439855, 
            "longitude": -155.855140124072
        }, 
        "review_count": 2, 
        "name": "Holoholokai Beach Park", 
        "distance": 4536.044272074744, 
        "categories": [
            "beaches"
        ]
    }, 
    {
        "rating": 4.5, 
        "coord": {
            "latitude": 19.968463, 
            "longitude": -155.845482
        }, 
        "review_count": 4, 
        "name": "Puako Bay Beach", 
        "distance": 6608.240861498773, 
        "categories": [
            "beaches"
        ]
    }, 
    {
        "rating": 4.5, 
        "coord": {
            "latitude": 19.9717643, 
            "longitude": -155.8397691
        }, 
        "review_count": 10, 
        "name": "The Puako General Store", 
        "distance": 7282.440300882578, 
        "categories": [
            "grocery"
        ]
    }, 
    {
        "rating": 5.0, 
        "coord": {
            "latitude": 19.95636, 
            "longitude": -155.82667
        }, 
        "review_count": 1, 
        "name": "The Big Island of Hawaii", 
        "distance": 7318.10476886599, 
        "categories": [
            "beaches"
        ]
    }, 
    {
        "rating": 5.0, 
        "coord": {
            "latitude": 19.9721203, 
            "longitude": -155.8390503
        }, 
        "review_count": 1, 
        "name": "Dive Puako", 
        "distance": 7362.867934621266, 
        "categories": [
            "scuba"
        ]
    }, 
    {
        "rating": 4.5, 
        "coord": {
            "latitude": 19.972376, 
            "longitude": -155.83473
        }, 
        "review_count": 3, 
        "name": "Honuala'i", 
        "distance": 7701.966958934853, 
        "categories": [
            "venues"
        ]
    }, 
    {
        "rating": 4.5, 
        "coord": {
            "latitude": 19.974091, 
            "longitude": -155.831579
        }, 
        "review_count": 47, 
        "name": "Adventure X Rafting", 
        "distance": 8071.6288648790205, 
        "categories": [
            "rafting"
        ]
    }, 
    {
        "rating": 5.0, 
        "coord": {
            "latitude": 19.9741328245072, 
            "longitude": -155.831572196204
        }, 
        "review_count": 58, 
        "name": "Hawaii Surf and Kayak", 
        "distance": 8075.324954727419, 
        "categories": [
            "paddleboarding", 
            "rafting", 
            "tours"
        ]
    }, 
    {
        "rating": 5.0, 
        "coord": {
            "latitude": 19.9737010823831, 
            "longitude": -155.830898258105
        }, 
        "review_count": 13, 
        "name": "Liquid Hawaii", 
        "distance": 8094.224447196382, 
        "categories": [
            "boating", 
            "scuba"
        ]
    }, 
    {
        "rating": 5.0, 
        "coord": {
            "latitude": 19.9756508, 
            "longitude": -155.8257113
        }, 
        "review_count": 5, 
        "name": "Molly Irene Media", 
        "distance": 8641.882159701236, 
        "categories": [
            "photographers", 
            "videographers"
        ]
    }, 
    {
        "rating": 4.5, 
        "coord": {
            "latitude": 19.981536, 
            "longitude": -155.828708
        }, 
        "review_count": 48, 
        "name": "Beach 69", 
        "distance": 8864.539201338626, 
        "categories": [
            "beaches"
        ]
    }, 
    {
        "rating": 5.0, 
        "coord": {
            "latitude": 19.98461, 
            "longitude": -155.82501
        }, 
        "review_count": 5, 
        "name": "Waialea Beach", 
        "distance": 9378.361932649546, 
        "categories": [
            "parks"
        ]
    }, 
    {
        "rating": 4.0, 
        "coord": {
            "latitude": 19.8486969611905, 
            "longitude": -155.931311157312
        }, 
        "review_count": 10, 
        "name": "Kiholo Bay", 
        "distance": 9511.914225888808, 
        "categories": [
            "beaches"
        ]
    }, 
    {
        "rating": 4.0, 
        "coord": {
            "latitude": 19.9269326504597, 
            "longitude": -155.795293704841
        }, 
        "review_count": 71, 
        "name": "Paniolo Greens", 
        "distance": 9674.855976533387, 
        "categories": [
            "hotels", 
            "resorts", 
            "vacation_rentals"
        ]
    }, 
    {
        "rating": 4.0, 
        "coord": {
            "latitude": 19.9305887, 
            "longitude": -155.7929629
        }, 
        "review_count": 12, 
        "name": "Waikoloa Village Golf Club", 
        "distance": 9939.926841895895, 
        "categories": [
            "golf"
        ]
    }, 
    {
        "rating": 4.5, 
        "coord": {
            "latitude": 19.9920219254243, 
            "longitude": -155.825329290784
        }, 
        "review_count": 225, 
        "name": "Hapuna Beach State Recreation Area", 
        "distance": 9959.470993048299, 
        "categories": [
            "swimmingpools", 
            "parks", 
            "beaches"
        ]
    }, 
    {
        "rating": 5.0, 
        "coord": {
            "latitude": 19.9372484, 
            "longitude": -155.7910681
        }, 
        "review_count": 5, 
        "name": "Big Hawaiian Island Photography", 
        "distance": 10216.771586598821, 
        "categories": [
            "eventphotography", 
            "sessionphotography"
        ]
    }, 
    {
        "rating": 4.5, 
        "coord": {
            "latitude": 19.9372484, 
            "longitude": -155.7910681
        }, 
        "review_count": 6, 
        "name": "Ohana Carvers", 
        "distance": 10216.771586598821, 
        "categories": [
            "galleries"
        ]
    }, 
    {
        "rating": 3.0, 
        "coord": {
            "latitude": 19.9372484, 
            "longitude": -155.7910681
        }, 
        "review_count": 2, 
        "name": "Na Hoku", 
        "distance": 10216.771586598821, 
        "categories": [
            "jewelry", 
            "watches"
        ]
    }, 
    {
        "rating": 3.5, 
        "coord": {
            "latitude": 19.9978246184914, 
            "longitude": -155.828340783815
        }, 
        "review_count": 21, 
        "name": "Mauna Kea Luau", 
        "distance": 10259.501045406125, 
        "categories": [
            "theater", 
            "hawaiian"
        ]
    }, 
    {
        "rating": 4.0, 
        "coord": {
            "latitude": 19.99192, 
            "longitude": -155.8204299
        }, 
        "review_count": 4, 
        "name": "Paradise Grill", 
        "distance": 10294.443979998036, 
        "categories": [
            "food"
        ]
    }, 
    {
        "rating": 4.0, 
        "coord": {
            "latitude": 19.9317918, 
            "longitude": -155.7891852
        }, 
        "review_count": 5, 
        "name": "Kohala Club Hotel", 
        "distance": 10344.574302332056, 
        "categories": [
            "hotels"
        ]
    }, 
    {
        "rating": 3.5, 
        "coord": {
            "latitude": 19.9950733, 
            "longitude": -155.8225861
        }, 
        "review_count": 47, 
        "name": "Coast Grille", 
        "distance": 10402.758924337993, 
        "categories": [
            "seafood"
        ]
    }, 
    {
        "rating": 5.0, 
        "coord": {
            "latitude": 19.9950733, 
            "longitude": -155.8225861
        }, 
        "review_count": 1, 
        "name": "Turtle Point", 
        "distance": 10402.758924337993, 
        "categories": [
            "wedding_planning"
        ]
    }, 
    {
        "rating": 4.0, 
        "coord": {
            "latitude": 19.9950733, 
            "longitude": -155.8225861
        }, 
        "review_count": 5, 
        "name": "Cafe Hapuna", 
        "distance": 10402.758924337993, 
        "categories": [
            "diyfood", 
            "coffee", 
            "convenience"
        ]
    }, 
    {
        "rating": 4.0, 
        "coord": {
            "latitude": 19.9950733, 
            "longitude": -155.8225861
        }, 
        "review_count": 4, 
        "name": "Cafe Hapuna", 
        "distance": 10402.758924337993, 
        "categories": [
            "cafes"
        ]
    }, 
    {
        "rating": 4.0, 
        "coord": {
            "latitude": 19.9950733, 
            "longitude": -155.8225861
        }, 
        "review_count": 3, 
        "name": "Let's Go Crabbing", 
        "distance": 10402.758924337993, 
        "categories": [
            "buffets"
        ]
    }, 
    {
        "rating": 4.0, 
        "coord": {
            "latitude": 19.9274542898257, 
            "longitude": -155.787841879201
        }, 
        "review_count": 290, 
        "name": "Island Lava Java Bake & Brew Bistro", 
        "distance": 10456.548442790283, 
        "categories": [
            "coffee", 
            "breakfast_brunch", 
            "burgers"
        ]
    }, 
    {
        "rating": 4.5, 
        "coord": {
            "latitude": 19.92758, 
            "longitude": -155.78746
        }, 
        "review_count": 8, 
        "name": "On Stage Salon Inc", 
        "distance": 10497.009463792405, 
        "categories": [
            "othersalons", 
            "hair"
        ]
    }, 
    {
        "rating": 4.0, 
        "coord": {
            "latitude": 19.9275799, 
            "longitude": -155.7874451
        }, 
        "review_count": 41, 
        "name": "Racha Thai Cuisine", 
        "distance": 10498.5679394086, 
        "categories": [
            "thai"
        ]
    }, 
    {
        "rating": 5.0, 
        "coord": {
            "latitude": 19.9275799, 
            "longitude": -155.7874451
        }, 
        "review_count": 3, 
        "name": "Aloha Natural Health", 
        "distance": 10498.5679394086, 
        "categories": [
            "naturopathic", 
            "acupuncture", 
            "massage"
        ]
    }, 
    {
        "rating": 4.0, 
        "coord": {
            "latitude": 19.927037052129, 
            "longitude": -155.787159312119
        }, 
        "review_count": 266, 
        "name": "Pueo's Osteria", 
        "distance": 10526.422397114151, 
        "categories": [
            "italian"
        ]
    }, 
    {
        "rating": 5.0, 
        "coord": {
            "latitude": 19.9274117630706, 
            "longitude": -155.787160065765
        }, 
        "review_count": 1, 
        "name": "Honua Cleaning", 
        "distance": 10527.718956005205, 
        "categories": [
            "homecleaning", 
            "vacation_rentals", 
            "officecleaning"
        ]
    }, 
    {
        "rating": 5.0, 
        "coord": {
            "latitude": 19.9268705103066, 
            "longitude": -155.787071193216
        }, 
        "review_count": 1, 
        "name": "Island Bikram Yoga", 
        "distance": 10535.085149532435, 
        "categories": [
            "yoga"
        ]
    }, 
    {
        "rating": 4.5, 
        "coord": {
            "latitude": 19.9287434, 
            "longitude": -155.7868517
        }, 
        "review_count": 56, 
        "name": "Waikoloa Village Market", 
        "distance": 10566.172550391477, 
        "categories": [
            "grocery"
        ]
    }, 
    {
        "rating": 5.0, 
        "coord": {
            "latitude": 19.9287434, 
            "longitude": -155.7868517
        }, 
        "review_count": 4, 
        "name": "Waikoloa Village Market Pharmacy", 
        "distance": 10566.172550391477, 
        "categories": [
            "drugstores"
        ]
    }, 
    {
        "rating": 4.5, 
        "coord": {
            "latitude": 19.9289099, 
            "longitude": -155.78682
        }, 
        "review_count": 3, 
        "name": "Vows In Hawaii", 
        "distance": 10570.405325165604, 
        "categories": [
            "wedding_planning"
        ]
    }, 
    {
        "rating": 5.0, 
        "coord": {
            "latitude": 19.9289099, 
            "longitude": -155.78682
        }, 
        "review_count": 1, 
        "name": "Life and Light Hawaii Photography", 
        "distance": 10570.405325165604, 
        "categories": [
            "sessionphotography", 
            "eventphotography"
        ]
    }, 
    {
        "rating": 3.5, 
        "coord": {
            "latitude": 19.9289099, 
            "longitude": -155.78682
        }, 
        "review_count": 3, 
        "name": "As Hawi Turns", 
        "distance": 10570.405325165604, 
        "categories": [
            "giftshops"
        ]
    }, 
    {
        "rating": 5.0, 
        "coord": {
            "latitude": 19.9289099, 
            "longitude": -155.78682
        }, 
        "review_count": 1, 
        "name": "Ocean Whisper Inc", 
        "distance": 10570.405325165604, 
        "categories": [
            "tours", 
            "boatcharters", 
            "vacationrentalagents"
        ]
    }, 
    {
        "rating": 5.0, 
        "coord": {
            "latitude": 19.92891, 
            "longitude": -155.78682
        }, 
        "review_count": 19, 
        "name": "Waikoloa Coast Divers", 
        "distance": 10570.405886119912, 
        "categories": [
            "scuba"
        ]
    }, 
    {
        "rating": 4.5, 
        "coord": {
            "latitude": 19.92891, 
            "longitude": -155.78682
        }, 
        "review_count": 40, 
        "name": "Anaeho'omalu Bay", 
        "distance": 10570.405886119912, 
        "categories": [
            "beaches"
        ]
    }, 
    {
        "rating": 4.5, 
        "coord": {
            "latitude": 19.92891, 
            "longitude": -155.78682
        }, 
        "review_count": 4, 
        "name": "Anaehoomalu Beach", 
        "distance": 10570.405886119912, 
        "categories": [
            "beaches"
        ]
    }, 
    {
        "rating": 5.0, 
        "coord": {
            "latitude": 19.92891, 
            "longitude": -155.78682
        }, 
        "review_count": 1, 
        "name": "Principle Limousine LLC.", 
        "distance": 10570.405886119912, 
        "categories": [
            "limos"
        ]
    }, 
    {
        "rating": 3.0, 
        "coord": {
            "latitude": 19.92891, 
            "longitude": -155.78682
        }, 
        "review_count": 2, 
        "name": "Paradise Weddings Hawaii", 
        "distance": 10570.405886119912, 
        "categories": [
            "eventplanning"
        ]
    }, 
    {
        "rating": 5.0, 
        "coord": {
            "latitude": 19.92891, 
            "longitude": -155.78682
        }, 
        "review_count": 1, 
        "name": "Dara Wipp", 
        "distance": 10570.405886119912, 
        "categories": [
            "hair"
        ]
    }, 
    {
        "rating": 3.0, 
        "coord": {
            "latitude": 19.92891, 
            "longitude": -155.78682
        }, 
        "review_count": 2, 
        "name": "Air Taxi & Tours", 
        "distance": 10570.405886119912, 
        "categories": [
            "taxis", 
            "limos"
        ]
    }, 
    {
        "rating": 3.0, 
        "coord": {
            "latitude": 19.9289093, 
            "longitude": -155.7868195
        }, 
        "review_count": 1, 
        "name": "Haimoff & Haimoff Creations In Gold", 
        "distance": 10570.454239445055, 
        "categories": [
            "jewelry"
        ]
    }, 
    {
        "rating": 5.0, 
        "coord": {
            "latitude": 19.9279709, 
            "longitude": -155.7864838
        }, 
        "review_count": 8, 
        "name": "Passion Flowers By Nalani", 
        "distance": 10600.817113607349, 
        "categories": [
            "florists"
        ]
    }, 
    {
        "rating": 4.0, 
        "coord": {
            "latitude": 19.92797, 
            "longitude": -155.78648
        }, 
        "review_count": 1, 
        "name": "Hot Tubs In Paradise", 
        "distance": 10601.21056693414, 
        "categories": [
            "hottubandpool"
        ]
    }, 
    {
        "rating": 5.0, 
        "coord": {
            "latitude": 19.92797, 
            "longitude": -155.78648
        }, 
        "review_count": 3, 
        "name": "Island Thyme Gourmet", 
        "distance": 10601.21056693414, 
        "categories": [
            "gourmet"
        ]
    }, 
    {
        "rating": 5.0, 
        "coord": {
            "latitude": 19.92797, 
            "longitude": -155.78648
        }, 
        "review_count": 2, 
        "name": "Simanjuntak Photography", 
        "distance": 10601.21056693414, 
        "categories": [
            "eventphotography", 
            "sessionphotography"
        ]
    }, 
    {
        "rating": 5.0, 
        "coord": {
            "latitude": 19.92797, 
            "longitude": -155.78648
        }, 
        "review_count": 2, 
        "name": "Aloha Photo Booth Rental", 
        "distance": 10601.21056693414, 
        "categories": [
            "partysupplies", 
            "photographers", 
            "musicvenues"
        ]
    }, 
    {
        "rating": 5.0, 
        "coord": {
            "latitude": 19.92797, 
            "longitude": -155.78648
        }, 
        "review_count": 1, 
        "name": "Nail Delivery", 
        "distance": 10601.21056693414, 
        "categories": [
            "skincare", 
            "othersalons"
        ]
    }, 
    {
        "rating": 5.0, 
        "coord": {
            "latitude": 20.0021748712842, 
            "longitude": -155.825423137179
        }, 
        "review_count": 1, 
        "name": "Mauna Kea Cultrual Activities", 
        "distance": 10827.768994706012, 
        "categories": [
            "arts"
        ]
    }, 
    {
        "rating": 4.5, 
        "coord": {
            "latitude": 19.9961565170239, 
            "longitude": -155.81745879773
        }, 
        "review_count": 9, 
        "name": "Nicco Floral Design", 
        "distance": 10849.69356101722, 
        "categories": [
            "florists"
        ]
    }, 
    {
        "rating": 5.0, 
        "coord": {
            "latitude": 19.9537950103431, 
            "longitude": -155.787846408784
        }, 
        "review_count": 1, 
        "name": "Kamakoa Nui Skate Park Hess", 
        "distance": 10955.223914305814, 
        "categories": [
            "skatingrinks"
        ]
    }, 
    {
        "rating": 4.0, 
        "coord": {
            "latitude": 20.0051963880262, 
            "longitude": -155.824275409566
        }, 
        "review_count": 37, 
        "name": "Hau Tree", 
        "distance": 11167.698893680192, 
        "categories": [
            "seafood", 
            "bars", 
            "breakfast_brunch"
        ]
    }, 
    {
        "rating": 4.0, 
        "coord": {
            "latitude": 20.0064941298615, 
            "longitude": -155.824703479021
        }, 
        "review_count": 137, 
        "name": "Mauna Kea Beach Hotel, Autograph Collection", 
        "distance": 11257.29609368164, 
        "categories": [
            "hotels"
        ]
    }, 
    {
        "rating": 3.5, 
        "coord": {
            "latitude": 20.0063843, 
            "longitude": -155.8244537
        }, 
        "review_count": 16, 
        "name": "Copper Bar", 
        "distance": 11262.77667040695, 
        "categories": [
            "cocktailbars", 
            "tradamerican", 
            "hawaiian"
        ]
    }, 
    {
        "rating": 4.0, 
        "coord": {
            "latitude": 20.0061894138963, 
            "longitude": -155.823537117263
        }, 
        "review_count": 1, 
        "name": "Number3", 
        "distance": 11302.026278565489, 
        "categories": [
            "newamerican", 
            "resorts"
        ]
    }, 
    {
        "rating": 5.0, 
        "coord": {
            "latitude": 20.0074809006148, 
            "longitude": -155.824621836226
        }, 
        "review_count": 40, 
        "name": "Kauna'oa Beach - Mauna Kea Beach", 
        "distance": 11351.002985028, 
        "categories": [
            "beaches"
        ]
    }, 
    {
        "rating": 4.5, 
        "coord": {
            "latitude": 20.0078312, 
            "longitude": -155.8250343
        }, 
        "review_count": 16, 
        "name": "Mauna Kea Golf", 
        "distance": 11357.609876367655, 
        "categories": [
            "golf"
        ]
    }, 
    {
        "rating": 4.0, 
        "coord": {
            "latitude": 20.0078312, 
            "longitude": -155.8250343
        }, 
        "review_count": 101, 
        "name": "Manta Restaurant", 
        "distance": 11357.609876367655, 
        "categories": [
            "hawaiian", 
            "wine_bars"
        ]
    }, 
    {
        "rating": 3.5, 
        "coord": {
            "latitude": 20.0078312, 
            "longitude": -155.8250343
        }, 
        "review_count": 20, 
        "name": "Clam Bake", 
        "distance": 11357.609876367655, 
        "categories": [
            "buffets"
        ]
    }, 
    {
        "rating": 5.0, 
        "coord": {
            "latitude": 20.0078316, 
            "longitude": -155.8250275
        }, 
        "review_count": 4, 
        "name": "Seaside Tennis Club", 
        "distance": 11358.056783068334, 
        "categories": [
            "tennis", 
            "sportgoods"
        ]
    }, 
    {
        "rating": 3.5, 
        "coord": {
            "latitude": 20.0078316, 
            "longitude": -155.8250275
        }, 
        "review_count": 2, 
        "name": "Accents Gift Shop", 
        "distance": 11358.056783068334, 
        "categories": [
            "flowers"
        ]
    }, 
    {
        "rating": 4.0, 
        "coord": {
            "latitude": 19.999786, 
            "longitude": -155.814072
        }, 
        "review_count": 204, 
        "name": "Hapuna Beach Prince Hotel", 
        "distance": 11385.355640988293, 
        "categories": [
            "hotels"
        ]
    }, 
    {
        "rating": 4.5, 
        "coord": {
            "latitude": 19.9113835141555, 
            "longitude": -155.777206420898
        }, 
        "review_count": 98, 
        "name": "Blue Hawaiian Helicopter Tours", 
        "distance": 11648.41459888937, 
        "categories": [
            "tours"
        ]
    }, 
    {
        "rating": 5.0, 
        "coord": {
            "latitude": 20.0100098, 
            "longitude": -155.8216858
        }, 
        "review_count": 1, 
        "name": "Sandbar Mauna Kea", 
        "distance": 11757.728120466367, 
        "categories": [
            "bars"
        ]
    }, 
    {
        "rating": 4.5, 
        "coord": {
            "latitude": 20.01001, 
            "longitude": -155.8216799
        }, 
        "review_count": 4, 
        "name": "Number 3", 
        "distance": 11758.108696800258, 
        "categories": [
            "newamerican"
        ]
    }, 
    {
        "rating": 3.5, 
        "coord": {
            "latitude": 19.82922, 
            "longitude": -155.83662
        }, 
        "review_count": 7, 
        "name": "Hawaii Island Weddings by Kauka", 
        "distance": 11779.395956628932, 
        "categories": [
            "wedding_planning"
        ]
    }, 
    {
        "rating": 5.0, 
        "coord": {
            "latitude": 19.82922, 
            "longitude": -155.83662
        }, 
        "review_count": 1, 
        "name": "Wishard Gallery", 
        "distance": 11779.395956628932, 
        "categories": [
            "galleries"
        ]
    }, 
    {
        "rating": 5.0, 
        "coord": {
            "latitude": 19.8292199307896, 
            "longitude": -155.836620032787
        }, 
        "review_count": 1, 
        "name": "L'core Paris", 
        "distance": 11779.401226954142, 
        "categories": [
            "cosmetics"
        ]
    }, 
    {
        "rating": 5.0, 
        "coord": {
            "latitude": 20.0160919930314, 
            "longitude": -155.823078344816
        }, 
        "review_count": 1, 
        "name": "Mau'umae Beach", 
        "distance": 12227.843081345265, 
        "categories": [
            "beaches"
        ]
    }, 
    {
        "rating": 5.0, 
        "coord": {
            "latitude": 20.00528, 
            "longitude": -155.80744
        }, 
        "review_count": 1, 
        "name": "Wai'ula'ula At Mauna Kea Resort", 
        "distance": 12303.184765768812, 
        "categories": [
            "vacation_rentals"
        ]
    }, 
    {
        "rating": 4.0, 
        "coord": {
            "latitude": 20.007024, 
            "longitude": -155.807036
        }, 
        "review_count": 8, 
        "name": "Hapuna Golf Course", 
        "distance": 12473.545031762655, 
        "categories": [
            "golf"
        ]
    }, 
    {
        "rating": 4.0, 
        "coord": {
            "latitude": 19.8168659848723, 
            "longitude": -155.843918323517
        }, 
        "review_count": 14, 
        "name": "Big Island Country Club", 
        "distance": 12718.19612540505, 
        "categories": [
            "countryclubs"
        ]
    }, 
    {
        "rating": 5.0, 
        "coord": {
            "latitude": 20.0224157719421, 
            "longitude": -155.822647016888
        }, 
        "review_count": 3, 
        "name": "Ala Kahakai", 
        "distance": 12840.887608565747, 
        "categories": [
            "parks"
        ]
    }, 
    {
        "rating": 4.0, 
        "coord": {
            "latitude": 20.0233550756599, 
            "longitude": -155.821838378906
        }, 
        "review_count": 14, 
        "name": "Spencer State Beach Park", 
        "distance": 12973.920761332607, 
        "categories": [
            "beaches"
        ]
    }, 
    {
        "rating": 4.0, 
        "coord": {
            "latitude": 20.0047860457519, 
            "longitude": -155.796110630035
        }, 
        "review_count": 18, 
        "name": "Sunshine Helicopters", 
        "distance": 13103.689773773274, 
        "categories": [
            "tours"
        ]
    }, 
    {
        "rating": 5.0, 
        "coord": {
            "latitude": 20.0279319279074, 
            "longitude": -155.827063915869
        }, 
        "review_count": 1, 
        "name": "Kohala Tours", 
        "distance": 13133.299201432052, 
        "categories": [
            "snorkeling", 
            "whalewatchingtours"
        ]
    }, 
    {
        "rating": 5.0, 
        "coord": {
            "latitude": 19.80224, 
            "longitude": -155.903606
        }, 
        "review_count": 2, 
        "name": "Sunshine Party Rental LLC", 
        "distance": 13587.049444305369, 
        "categories": [
            "partyequipmentrentals"
        ]
    }, 
    {
        "rating": 4.5, 
        "coord": {
            "latitude": 20.0217325, 
            "longitude": -155.8089106
        }, 
        "review_count": 20, 
        "name": "Pu'ukohola Heiau National Historic Site", 
        "distance": 13596.971564964551, 
        "categories": [
            "parks", 
            "tours"
        ]
    }, 
    {
        "rating": 4.0, 
        "coord": {
            "latitude": 20.023122, 
            "longitude": -155.8093286
        }, 
        "review_count": 1, 
        "name": "Aloha Debbie Properties", 
        "distance": 13693.377549209865, 
        "categories": [
            "vacation_rentals"
        ]
    }, 
    {
        "rating": 4.0, 
        "coord": {
            "latitude": 19.90572, 
            "longitude": -155.75795
        }, 
        "review_count": 6, 
        "name": "Absolute Salon", 
        "distance": 13730.868650722494, 
        "categories": [
            "hair", 
            "othersalons"
        ]
    }, 
    {
        "rating": 4.0, 
        "coord": {
            "latitude": 19.90572, 
            "longitude": -155.75795
        }, 
        "review_count": 1, 
        "name": "Pu'u Hinai", 
        "distance": 13730.868650722494, 
        "categories": [
            "hiking"
        ]
    }, 
    {
        "rating": 4.0, 
        "coord": {
            "latitude": 19.90572, 
            "longitude": -155.75795
        }, 
        "review_count": 1, 
        "name": "Orchid Cafe", 
        "distance": 13730.868650722494, 
        "categories": [
            "hotels", 
            "restaurants"
        ]
    }, 
    {
        "rating": 5.0, 
        "coord": {
            "latitude": 20.0352778, 
            "longitude": -155.8283333
        }, 
        "review_count": 28, 
        "name": "Endless Summer Private Charters", 
        "distance": 13790.626063196476, 
        "categories": [
            "boatcharters", 
            "tours"
        ]
    }, 
    {
        "rating": 4.5, 
        "coord": {
            "latitude": 20.0381001774321, 
            "longitude": -155.828721779009
        }, 
        "review_count": 131, 
        "name": "Plantation Grill", 
        "distance": 14052.410733971139, 
        "categories": [
            "seafood", 
            "tradamerican"
        ]
    }, 
    {
        "rating": 5.0, 
        "coord": {
            "latitude": 20.03721, 
            "longitude": -155.8268
        }, 
        "review_count": 20, 
        "name": "Blue Dragon Bodywork", 
        "distance": 14053.933033121462, 
        "categories": [
            "massage", 
            "spas"
        ]
    }, 
    {
        "rating": 4.0, 
        "coord": {
            "latitude": 20.03721, 
            "longitude": -155.8268
        }, 
        "review_count": 161, 
        "name": "Blue Dragon", 
        "distance": 14053.933033121462, 
        "categories": [
            "seafood", 
            "musicvenues", 
            "newamerican"
        ]
    }, 
    {
        "rating": 5.0, 
        "coord": {
            "latitude": 20.03721, 
            "longitude": -155.8268
        }, 
        "review_count": 160, 
        "name": "Original Big Island Shave Ice", 
        "distance": 14053.933033121462, 
        "categories": [
            "foodtrucks", 
            "shavedice", 
            "desserts"
        ]
    }, 
    {
        "rating": 5.0, 
        "coord": {
            "latitude": 20.0373364, 
            "longitude": -155.8267852
        }, 
        "review_count": 4, 
        "name": "Dragon Wagon", 
        "distance": 14067.108494107728, 
        "categories": [
            "foodtrucks", 
            "vegetarian", 
            "hotdogs"
        ]
    }, 
    {
        "rating": 5.0, 
        "coord": {
            "latitude": 20.0381393, 
            "longitude": -155.8284607
        }, 
        "review_count": 1, 
        "name": "Island Herbal", 
        "distance": 14068.312940549384, 
        "categories": [
            "cosmetics"
        ]
    }, 
    {
        "rating": 4.5, 
        "coord": {
            "latitude": 20.0388275921817, 
            "longitude": -155.829960107803
        }, 
        "review_count": 70, 
        "name": "Kawaihae Kitchen", 
        "distance": 14068.698442820949, 
        "categories": [
            "hawaiian", 
            "sushi", 
            "salad"
        ]
    }, 
    {
        "rating": 4.5, 
        "coord": {
            "latitude": 20.03815, 
            "longitude": -155.82847
        }, 
        "review_count": 60, 
        "name": "Aloha Deli", 
        "distance": 14068.947827139742, 
        "categories": [
            "seafood", 
            "breakfast_brunch", 
            "tradamerican"
        ]
    }, 
    {
        "rating": 5.0, 
        "coord": {
            "latitude": 20.0389194, 
            "longitude": -155.8300018
        }, 
        "review_count": 8, 
        "name": "Siren Sportfishing", 
        "distance": 14076.00735466521, 
        "categories": [
            "boating", 
            "fishing", 
            "scuba"
        ]
    }, 
    {
        "rating": 4.5, 
        "coord": {
            "latitude": 20.0389194, 
            "longitude": -155.8300018
        }, 
        "review_count": 109, 
        "name": "Da Fish House Lunch Wagon", 
        "distance": 14076.00735466521, 
        "categories": [
            "seafood", 
            "foodstands"
        ]
    }, 
    {
        "rating": 4.5, 
        "coord": {
            "latitude": 20.03892, 
            "longitude": -155.83
        }, 
        "review_count": 2, 
        "name": "The Harbor Gallery", 
        "distance": 14076.148112981533, 
        "categories": [
            "furniture", 
            "galleries"
        ]
    }, 
    {
        "rating": 4.0, 
        "coord": {
            "latitude": 20.03892, 
            "longitude": -155.83
        }, 
        "review_count": 1, 
        "name": "Mr. K's Takeout", 
        "distance": 14076.148112981533, 
        "categories": [
            "convenience", 
            "asianfusion"
        ]
    }, 
    {
        "rating": 5.0, 
        "coord": {
            "latitude": 20.0390795749563, 
            "longitude": -155.830185413361
        }, 
        "review_count": 69, 
        "name": "Kohala Divers", 
        "distance": 14083.811439087489, 
        "categories": [
            "scuba"
        ]
    }, 
    {
        "rating": 4.0, 
        "coord": {
            "latitude": 20.038465, 
            "longitude": -155.828503
        }, 
        "review_count": 213, 
        "name": "Seafood Bar & Grill", 
        "distance": 14098.747229932935, 
        "categories": [
            "seafood", 
            "bars"
        ]
    }, 
    {
        "rating": 4.5, 
        "coord": {
            "latitude": 20.0389989405124, 
            "longitude": -155.829563140869
        }, 
        "review_count": 363, 
        "name": "Kohala Burger & Taco", 
        "distance": 14103.691681340826, 
        "categories": [
            "burgers", 
            "mexican", 
            "seafood"
        ]
    }, 
    {
        "rating": 5.0, 
        "coord": {
            "latitude": 19.9500809, 
            "longitude": -155.7556763
        }, 
        "review_count": 1, 
        "name": "Angela Zink", 
        "distance": 14113.83480483604, 
        "categories": [
            "professional", 
            "food", 
            "personalchefs", 
            "catering"
        ]
    }, 
    {
        "rating": 4.0, 
        "coord": {
            "latitude": 20.0392283, 
            "longitude": -155.8298096
        }, 
        "review_count": 1, 
        "name": "Kawaihae Shopping Center", 
        "distance": 14115.523480152491, 
        "categories": [
            "shoppingcenters"
        ]
    }, 
    {
        "rating": 4.5, 
        "coord": {
            "latitude": 20.0396137771008, 
            "longitude": -155.82967042923
        }, 
        "review_count": 31, 
        "name": "Hale I'A Da Fish House", 
        "distance": 14160.31834112108, 
        "categories": [
            "seafoodmarkets"
        ]
    }, 
    {
        "rating": 4.5, 
        "coord": {
            "latitude": 20.040128, 
            "longitude": -155.830105
        }, 
        "review_count": 106, 
        "name": "Anuenue Shave Ice", 
        "distance": 14192.409140655316, 
        "categories": [
            "icecream", 
            "shavedice"
        ]
    }, 
    {
        "rating": 5.0, 
        "coord": {
            "latitude": 20.0426102, 
            "longitude": -155.8332062
        }, 
        "review_count": 10, 
        "name": "Kohala Sail & Sea", 
        "distance": 14309.365331104109, 
        "categories": [
            "boatcharters", 
            "travelservices", 
            "tours"
        ]
    }, 
    {
        "rating": 4.0, 
        "coord": {
            "latitude": 20.0428886, 
            "longitude": -155.8334533
        }, 
        "review_count": 352, 
        "name": "Cafe Pesto", 
        "distance": 14327.381508207067, 
        "categories": [
            "pizza"
        ]
    }, 
    {
        "rating": 4.0, 
        "coord": {
            "latitude": 19.974244, 
            "longitude": -155.761338
        }, 
        "review_count": 22, 
        "name": "Snorkel Bob's Mauna Lani", 
        "distance": 14343.048752978008, 
        "categories": [
            "diving", 
            "tours", 
            "snorkeling"
        ]
    }, 
    {
        "rating": 5.0, 
        "coord": {
            "latitude": 19.974244, 
            "longitude": -155.761338
        }, 
        "review_count": 4, 
        "name": "Ann Ferguson Photography", 
        "distance": 14343.048752978008, 
        "categories": [
            "eventphotography", 
            "sessionphotography"
        ]
    }, 
    {
        "rating": 4.5, 
        "coord": {
            "latitude": 19.974244, 
            "longitude": -155.761338
        }, 
        "review_count": 7, 
        "name": "Mauna Kea Beach Resort Beach Bar", 
        "distance": 14343.048752978008, 
        "categories": [
            "lounges"
        ]
    }, 
    {
        "rating": 5.0, 
        "coord": {
            "latitude": 20.0453892, 
            "longitude": -155.8347321
        }, 
        "review_count": 8, 
        "name": "CrossFit Kawaihae", 
        "distance": 14530.446938190858, 
        "categories": [
            "gyms"
        ]
    }, 
    {
        "rating": 5.0, 
        "coord": {
            "latitude": 20.0487271, 
            "longitude": -155.8377353
        }, 
        "review_count": 1, 
        "name": "Ocean Sports", 
        "distance": 14758.559143812388, 
        "categories": [
            "boating", 
            "scuba", 
            "boatcharters"
        ]
    }, 
    {
        "rating": 4.5, 
        "coord": {
            "latitude": 20.04938, 
            "longitude": -155.83581
        }, 
        "review_count": 115, 
        "name": "Hamakua Macadamia Nut Company", 
        "distance": 14898.367830405694, 
        "categories": [
            "gourmet", 
            "souvenirs"
        ]
    }, 
    {
        "rating": 4.5, 
        "coord": {
            "latitude": 19.828402, 
            "longitude": -155.992153
        }, 
        "review_count": 189, 
        "name": "Four Seasons Resort Hualalai", 
        "distance": 15227.486923735645, 
        "categories": [
            "hotels"
        ]
    }, 
    {
        "rating": 4.0, 
        "coord": {
            "latitude": 19.8277801, 
            "longitude": -155.9915542
        }, 
        "review_count": 110, 
        "name": "'ULU Ocean Grill + Sushi Lounge", 
        "distance": 15230.583354523149, 
        "categories": [
            "sushi", 
            "seafood", 
            "hawaiian"
        ]
    }, 
    {
        "rating": 4.0, 
        "coord": {
            "latitude": 19.828079, 
            "longitude": -155.991982
        }, 
        "review_count": 42, 
        "name": "The Hualalai Grille", 
        "distance": 15239.533220243859, 
        "categories": [
            "steak"
        ]
    }, 
    {
        "rating": 5.0, 
        "coord": {
            "latitude": 19.8274689, 
            "longitude": -155.9915161
        }, 
        "review_count": 6, 
        "name": "Hualalai Golf Club", 
        "distance": 15251.869151123221, 
        "categories": [
            "golf"
        ]
    }, 
    {
        "rating": 4.5, 
        "coord": {
            "latitude": 19.827295, 
            "longitude": -155.991974
        }, 
        "review_count": 24, 
        "name": "Residents' Beach House", 
        "distance": 15299.582254630497, 
        "categories": [
            "tradamerican"
        ]
    }, 
    {
        "rating": 5.0, 
        "coord": {
            "latitude": 19.826788, 
            "longitude": -155.991467
        }, 
        "review_count": 4, 
        "name": "Hualalai Trading Company", 
        "distance": 15301.162420927818, 
        "categories": [
            "giftshops"
        ]
    }, 
    {
        "rating": 4.5, 
        "coord": {
            "latitude": 19.828039, 
            "longitude": -155.992991
        }, 
        "review_count": 144, 
        "name": "Beach Tree Bar and Grill", 
        "distance": 15318.546767602436, 
        "categories": [
            "seafood", 
            "newamerican", 
            "italian", 
            "bars", 
            "bbq"
        ]
    }, 
    {
        "rating": 3.5, 
        "coord": {
            "latitude": 19.8272215634665, 
            "longitude": -155.992212295532
        }, 
        "review_count": 6, 
        "name": "Spa at Four Seasons Resort Hualalai at Historic Ka'upulehu", 
        "distance": 15323.101071837531, 
        "categories": [
            "spas"
        ]
    }, 
    {
        "rating": 5.0, 
        "coord": {
            "latitude": 19.8214584543442, 
            "longitude": -155.996675491333
        }, 
        "review_count": 17, 
        "name": "Kuki'o Beach", 
        "distance": 16104.073070308545, 
        "categories": [
            "beaches"
        ]
    }, 
    {
        "rating": 5.0, 
        "coord": {
            "latitude": 20.0224495, 
            "longitude": -155.7713165
        }, 
        "review_count": 2, 
        "name": "In Touch Massage Therapy", 
        "distance": 16338.281027493089, 
        "categories": [
            "massage"
        ]
    }, 
    {
        "rating": 5.0, 
        "coord": {
            "latitude": 19.8114199, 
            "longitude": -155.99339
        }, 
        "review_count": 4, 
        "name": "Kikau Beach", 
        "distance": 16675.87754195745, 
        "categories": [
            "beaches"
        ]
    }, 
    {
        "rating": 5.0, 
        "coord": {
            "latitude": 19.8170298212991, 
            "longitude": -156.001117195948
        }, 
        "review_count": 4, 
        "name": "Kikaua Point Park", 
        "distance": 16779.750454949135, 
        "categories": [
            "parks"
        ]
    }, 
    {
        "rating": 5.0, 
        "coord": {
            "latitude": 19.8154419692193, 
            "longitude": -156.000492155463
        }, 
        "review_count": 2, 
        "name": "Kikua Beach", 
        "distance": 16858.396576185132, 
        "categories": [
            "beaches"
        ]
    }, 
    {
        "rating": 3.0, 
        "coord": {
            "latitude": 20.07294, 
            "longitude": -155.84435
        }, 
        "review_count": 2, 
        "name": "Pua Mau Place", 
        "distance": 17095.06062062378, 
        "categories": [
            "gardens"
        ]
    }, 
    {
        "rating": 5.0, 
        "coord": {
            "latitude": 19.8115586155753, 
            "longitude": -156.007549166679
        }, 
        "review_count": 1, 
        "name": "PCH Rock", 
        "distance": 17684.64608915705, 
        "categories": [
            "beaches"
        ]
    }, 
    {
        "rating": 5.0, 
        "coord": {
            "latitude": 19.8096180579667, 
            "longitude": -156.005869081388
        }, 
        "review_count": 10, 
        "name": "Manini'owali Beach", 
        "distance": 17713.174491257185, 
        "categories": [
            "beaches"
        ]
    }, 
    {
        "rating": 3.5, 
        "coord": {
            "latitude": 19.8089738222758, 
            "longitude": -156.006368380917
        }, 
        "review_count": 8, 
        "name": "Makalei Golf Club", 
        "distance": 17800.751092300543, 
        "categories": [
            "golf"
        ]
    }, 
    {
        "rating": 3.0, 
        "coord": {
            "latitude": 19.80061, 
            "longitude": -155.99811
        }, 
        "review_count": 2, 
        "name": "Uncle Herb's Malasadas", 
        "distance": 17904.16266775666, 
        "categories": [
            "foodstands"
        ]
    }, 
    {
        "rating": 5.0, 
        "coord": {
            "latitude": 19.79976, 
            "longitude": -155.99897
        }, 
        "review_count": 3, 
        "name": "Kona Coast State Park", 
        "distance": 18034.201730411896, 
        "categories": [
            "parks"
        ]
    }, 
    {
        "rating": 4.5, 
        "coord": {
            "latitude": 20.0602398, 
            "longitude": -155.7474365
        }, 
        "review_count": 41, 
        "name": "Paniolo Adventures", 
        "distance": 21039.36934431999, 
        "categories": [
            "horsebackriding"
        ]
    }, 
    {
        "rating": 4.0, 
        "coord": {
            "latitude": 20.11708, 
            "longitude": -155.87883
        }, 
        "review_count": 3, 
        "name": "Lapakahi State Historical Park", 
        "distance": 21390.000130956014, 
        "categories": [
            "parks"
        ]
    }, 
    {
        "rating": 5.0, 
        "coord": {
            "latitude": 20.1170807, 
            "longitude": -155.87883
        }, 
        "review_count": 1, 
        "name": "Kawaihae Harbor Grill", 
        "distance": 21390.077552701554, 
        "categories": [
            "restaurants"
        ]
    }, 
    {
        "rating": 4.5, 
        "coord": {
            "latitude": 20.1170807, 
            "longitude": -155.87883
        }, 
        "review_count": 9, 
        "name": "Puakea Ranch", 
        "distance": 21390.077552701554, 
        "categories": [
            "hotelstravel"
        ]
    }, 
    {
        "rating": 4.0, 
        "coord": {
            "latitude": 19.7785101414931, 
            "longitude": -156.026688856991
        }, 
        "review_count": 42, 
        "name": "Kekaha Kai State Park", 
        "distance": 21717.555323682194, 
        "categories": [
            "beaches", 
            "parks"
        ]
    }, 
    {
        "rating": 4.5, 
        "coord": {
            "latitude": 20.02515, 
            "longitude": -155.70792
        }, 
        "review_count": 10, 
        "name": "Aaah the Views Bed & Breakfast", 
        "distance": 21889.549360728488, 
        "categories": [
            "bedbreakfast"
        ]
    }, 
    {
        "rating": 3.5, 
        "coord": {
            "latitude": 19.7441, 
            "longitude": -155.9749274
        }, 
        "review_count": 10, 
        "name": "Makalei Hawaii Country Club", 
        "distance": 21917.981668091626, 
        "categories": [
            "countryclubs"
        ]
    }, 
    {
        "rating": 5.0, 
        "coord": {
            "latitude": 19.7441, 
            "longitude": -155.9749274
        }, 
        "review_count": 14, 
        "name": "Kua Bay", 
        "distance": 21917.981668091626, 
        "categories": [
            "beaches"
        ]
    }, 
    {
        "rating": 5.0, 
        "coord": {
            "latitude": 20.0785977516839, 
            "longitude": -155.753230825067
        }, 
        "review_count": 1, 
        "name": "The Pooch Mobile", 
        "distance": 22149.916762541678, 
        "categories": [
            "groomer"
        ]
    }, 
    {
        "rating": 4.0, 
        "coord": {
            "latitude": 19.73899, 
            "longitude": -155.98018
        }, 
        "review_count": 1, 
        "name": "Bears' Place Guest House", 
        "distance": 22663.228348824, 
        "categories": [
            "bedbreakfast"
        ]
    }, 
    {
        "rating": 3.0, 
        "coord": {
            "latitude": 20.0197087086924, 
            "longitude": -155.695658928589
        }, 
        "review_count": 2, 
        "name": "Doggie Dude Ranch", 
        "distance": 22715.023821186638, 
        "categories": [
            "pet_sitting", 
            "pet_training"
        ]
    }, 
    {
        "rating": 5.0, 
        "coord": {
            "latitude": 19.7638589496243, 
            "longitude": -156.023900778168
        }, 
        "review_count": 4, 
        "name": "Lava Tube Cave", 
        "distance": 22762.715842408867, 
        "categories": [
            "localflavor"
        ]
    }, 
    {
        "rating": 5.0, 
        "coord": {
            "latitude": 19.98907, 
            "longitude": -155.67679
        }, 
        "review_count": 4, 
        "name": "Big Island Tents", 
        "distance": 23216.39574969513, 
        "categories": [
            "partyequipmentrentals"
        ]
    }, 
    {
        "rating": 4.0, 
        "coord": {
            "latitude": 20.0134300657824, 
            "longitude": -155.685720965266
        }, 
        "review_count": 1, 
        "name": "Sandwich Isle Bread Company", 
        "distance": 23337.457699296752, 
        "categories": [
            "bakeries", 
            "farmersmarket"
        ]
    }, 
    {
        "rating": 5.0, 
        "coord": {
            "latitude": 19.730607229727, 
            "longitude": -155.981927187189
        }, 
        "review_count": 1, 
        "name": "Hawaii Green Bikes", 
        "distance": 23581.57664486457, 
        "categories": [
            "bikes"
        ]
    }, 
    {
        "rating": 5.0, 
        "coord": {
            "latitude": 20.026062, 
            "longitude": -155.688044
        }, 
        "review_count": 8, 
        "name": "Big Island Bike Tours", 
        "distance": 23748.99254017916, 
        "categories": [
            "tours"
        ]
    }, 
    {
        "rating": 4.5, 
        "coord": {
            "latitude": 20.02606, 
            "longitude": -155.68804
        }, 
        "review_count": 3, 
        "name": "Anna Ranch Heritage Center", 
        "distance": 23749.255652172742, 
        "categories": [
            "museums", 
            "landmarks"
        ]
    }, 
    {
        "rating": 4.0, 
        "coord": {
            "latitude": 20.01014, 
            "longitude": -155.67915
        }, 
        "review_count": 9, 
        "name": "Tropical Dreams", 
        "distance": 23814.218083088937, 
        "categories": [
            "icecream"
        ]
    }, 
    {
        "rating": 5.0, 
        "coord": {
            "latitude": 20.01014, 
            "longitude": -155.67915
        }, 
        "review_count": 1, 
        "name": "Rare Hawaiian Honey Company", 
        "distance": 23814.218083088937, 
        "categories": [
            "gourmet"
        ]
    }, 
    {
        "rating": 5.0, 
        "coord": {
            "latitude": 20.0101395, 
            "longitude": -155.6791382
        }, 
        "review_count": 2, 
        "name": "CrossFit Waimea", 
        "distance": 23815.327820737093, 
        "categories": [
            "gyms", 
            "healthtrainers"
        ]
    }, 
    {
        "rating": 5.0, 
        "coord": {
            "latitude": 19.7232718817377, 
            "longitude": -155.971655845642
        }, 
        "review_count": 1, 
        "name": "Lyman Kona Coffee Farms", 
        "distance": 23904.690817262155, 
        "categories": [
            "coffee"
        ]
    }, 
    {
        "rating": 4.0, 
        "coord": {
            "latitude": 20.0267, 
            "longitude": -155.68532
        }, 
        "review_count": 13, 
        "name": "The Jacaranda Inn", 
        "distance": 24033.457084248494, 
        "categories": [
            "hotels"
        ]
    }, 
    {
        "rating": 5.0, 
        "coord": {
            "latitude": 19.722794, 
            "longitude": -155.976284
        }, 
        "review_count": 10, 
        "name": "Paws University", 
        "distance": 24136.23775213339, 
        "categories": [
            "pet_sitting"
        ]
    }, 
    {
        "rating": 5.0, 
        "coord": {
            "latitude": 20.02817, 
            "longitude": -155.68428
        }, 
        "review_count": 1, 
        "name": "Hale Kea Farms", 
        "distance": 24206.408035897297, 
        "categories": [
            "farmersmarket"
        ]
    }, 
    {
        "rating": 3.5, 
        "coord": {
            "latitude": 19.7225113, 
            "longitude": -155.9778595
        }, 
        "review_count": 6, 
        "name": "Mango Sunset Bed and Breakfast Inn", 
        "distance": 24229.031452278225, 
        "categories": [
            "bedbreakfast"
        ]
    }, 
    {
        "rating": 5.0, 
        "coord": {
            "latitude": 19.7243595, 
            "longitude": -155.9851532
        }, 
        "review_count": 1, 
        "name": "Robin Bourne Photography", 
        "distance": 24351.25761442864, 
        "categories": [
            "eventphotography"
        ]
    }, 
    {
        "rating": 5.0, 
        "coord": {
            "latitude": 19.7243879, 
            "longitude": -155.9858238
        }, 
        "review_count": 1, 
        "name": "Bree's Taxi", 
        "distance": 24377.959188777164, 
        "categories": [
            "taxis", 
            "airport_shuttles"
        ]
    }, 
    {
        "rating": 4.0, 
        "coord": {
            "latitude": 20.12487, 
            "longitude": -155.78708
        }, 
        "review_count": 8, 
        "name": "Kahua Ranch", 
        "distance": 24597.050745093857, 
        "categories": [
            "atvrentals"
        ]
    }, 
    {
        "rating": 4.5, 
        "coord": {
            "latitude": 20.02301, 
            "longitude": -155.67695
        }, 
        "review_count": 471, 
        "name": "Merriman's", 
        "distance": 24624.59881365615, 
        "categories": [
            "hawaiian", 
            "salad", 
            "sandwiches"
        ]
    }, 
    {
        "rating": 4.0, 
        "coord": {
            "latitude": 20.02301, 
            "longitude": -155.67695
        }, 
        "review_count": 113, 
        "name": "Pau", 
        "distance": 24624.59881365615, 
        "categories": [
            "pizza"
        ]
    }, 
    {
        "rating": 5.0, 
        "coord": {
            "latitude": 20.02301, 
            "longitude": -155.67695
        }, 
        "review_count": 1, 
        "name": "Sugar Bare Hawaii", 
        "distance": 24624.59881365615, 
        "categories": [
            "waxing"
        ]
    }, 
    {
        "rating": 4.0, 
        "coord": {
            "latitude": 20.0226942, 
            "longitude": -155.6766457
        }, 
        "review_count": 15, 
        "name": "Kamuela Inn", 
        "distance": 24637.62916060561, 
        "categories": [
            "hotels"
        ]
    }, 
    {
        "rating": 4.0, 
        "coord": {
            "latitude": 20.0011337015164, 
            "longitude": -155.666722338672
        }, 
        "review_count": 3, 
        "name": "Waimea-Kohala Airport", 
        "distance": 24649.611474246358, 
        "categories": [
            "airports"
        ]
    }, 
    {
        "rating": 5.0, 
        "coord": {
            "latitude": 20.0237081, 
            "longitude": -155.676677
        }, 
        "review_count": 3, 
        "name": "Kamuela Massage", 
        "distance": 24684.59430285849, 
        "categories": [
            "massage"
        ]
    }, 
    {
        "rating": 4.0, 
        "coord": {
            "latitude": 20.0219841473225, 
            "longitude": -155.675668716431
        }, 
        "review_count": 181, 
        "name": "Red Water Cafe", 
        "distance": 24694.76253968813, 
        "categories": [
            "sushi", 
            "asianfusion"
        ]
    }, 
    {
        "rating": 3.5, 
        "coord": {
            "latitude": 20.0170878, 
            "longitude": -155.6731964
        }, 
        "review_count": 5, 
        "name": "Parker Ranch", 
        "distance": 24696.880292918482, 
        "categories": [
            "wildlifehunting", 
            "historicaltours", 
            "ranches"
        ]
    }, 
    {
        "rating": 5.0, 
        "coord": {
            "latitude": 19.724062, 
            "longitude": -155.992176
        }, 
        "review_count": 12, 
        "name": "Kelilina Photography + Films", 
        "distance": 24698.43160392706, 
        "categories": [
            "videographers", 
            "sessionphotography", 
            "eventphotography"
        ]
    }, 
    {
        "rating": 5.0, 
        "coord": {
            "latitude": 20.02148, 
            "longitude": -155.67518
        }, 
        "review_count": 1, 
        "name": "Gregore Salon", 
        "distance": 24716.35389774042, 
        "categories": [
            "hair"
        ]
    }, 
    {
        "rating": 5.0, 
        "coord": {
            "latitude": 20.0224628, 
            "longitude": -155.6755898
        },